{"data":[
{"id":21213,"name":"경기상업고등학교","type":"고등학교","website":"http://www.ggc.hs.kr","lat":"37.5890588","lng":"126.9713010","prov":"서울","address":"서울특별시 종로구 청운동 89번지","tel":"02-737-6490","foundation":"공립"},{"id":21214,"name":"경복고등학교","type":"고등학교","website":"http://www.kyungbock.hs.kr","lat":"37.5867302","lng":"126.9717701","prov":"서울","address":"서울특별시 종로구 청운동 89-9","tel":"02-737-447","foundation":"공립"},{"id":21215,"name":"경신고등학교","type":"고등학교","website":"http://kyungshin.hs.kr","lat":"37.5914502","lng":"127.0006702","prov":"서울","address":"서울특별시 종로구 혜화로 74","tel":"02-762-0393","foundation":"사립"},{"id":21216,"name":"대동세무고등학교","type":"고등학교","website":"http://daedong.kr","lat":"37.5819196","lng":"126.9879303","prov":"서울","address":"서울특별시 종로구 계동 35번지","tel":"02-763-163","foundation":"사립"},{"id":21217,"name":"대신고등학교","type":"고등학교","website":"http://www.dae-shin.hs.kr/","lat":"37.5734589","lng":"126.9618887","prov":"서울","address":"서울특별시 종로구 행촌동 171번지","tel":"02-736-0317","foundation":"사립"},{"id":21218,"name":"덕성여자고등학교","type":"고등학교","website":"http://www.duksung.hs.kr","lat":"37.5780016","lng":"126.9831809","prov":"서울","address":"서울특별시 종로구 안국동 37번지","tel":"02-734-687","foundation":"사립"},{"id":21219,"name":"동성고등학교","type":"고등학교","website":"http://www.dongsung.hs.kr","lat":"37.5809501","lng":"126.9996059","prov":"서울","address":"서울특별시 종로구 혜화동 대학로 156","tel":"02-3671-9196","foundation":"사립"},{"id":21220,"name":"배화여자고등학교","type":"고등학교","website":"http://www.paiwha.hs.kr","lat":"37.5786745","lng":"126.9670784","prov":"서울","address":"서울특별시 종로구 필운동 12","tel":"02-724-0300","foundation":"사립"},{"id":21221,"name":"상명대학교사범대학부속여자고등학교","type":"고등학교","website":"http://www.sangmyung-agh.hs.kr/","lat":"37.6019428","lng":"126.9542915","prov":"서울","address":"서울특별시 종로구 홍지동 7","tel":"02-396-6300","foundation":"사립"},{"id":21222,"name":"서울과학고등학교","type":"고등학교","website":"http://www.sshs.hs.kr","lat":"37.5914843","lng":"126.9986361","prov":"서울","address":"서울특별시 종로구 혜화동 1-1번지","tel":"02-740-6204","foundation":"공립"},{"id":21223,"name":"서울국제고등학교","type":"고등학교","website":"http://www.sghs.kr","lat":"37.5729503","lng":"126.9793579","prov":"서울","address":"서울특별시 종로구 명륜동1가 (종로구 명륜동 1가 1-27)","tel":"02-743-9385","foundation":"공립"},{"id":21224,"name":"서울예술고등학교","type":"고등학교","website":"http://www.yego.or.kr","lat":"37.6054831","lng":"126.9686490","prov":"서울","address":"서울특별시 종로구 평창동 217","tel":"02-2287-0500","foundation":"사립"},{"id":21225,"name":"서일정보산업고등학교","type":"고등학교","website":"http://www.seo-il.hs.kr","lat":"37.5750914","lng":"127.0121575","prov":"서울","address":"서울특별시 종로구 창신동 서일정보산업고등학교","tel":"070-7457-6245","foundation":"사립"},{"id":21226,"name":"중앙고등학교","type":"고등학교","website":"http://www.choongang.hs.kr","lat":"37.5848970","lng":"126.9870352","prov":"서울","address":"서울특별시 종로구 계동 1번지","tel":"02-742-132","foundation":"사립"},{"id":21227,"name":"풍문여자고등학교","type":"고등학교","website":"http://www.pungmoon.hs.kr","lat":"37.5767345","lng":"126.9833623","prov":"서울","address":"서울특별시 종로구 안국동 175-2번지","tel":"02-732-2937","foundation":"사립"},{"id":21228,"name":"경기여자상업고등학교","type":"고등학교","website":"http://www.gggc.hs.kr","lat":"37.5568197","lng":"126.9666418","prov":"서울","address":"서울 중구 만리재로 37길 30 경기여자상업고등학교","tel":"02-392-6666","foundation":"사립"},{"id":21229,"name":"계성여자고등학교","type":"고등학교","website":"http://ksg.hs.kr","lat":"37.5624615","lng":"126.9869644","prov":"서울","address":"서울특별시 중구 명동2가 1-7번지","tel":"02-728-6100","foundation":"사립"},{"id":21230,"name":"대경정보산업고등학교","type":"고등학교","website":"http://www.daekyeong.hs.kr","lat":"37.5563646","lng":"127.0170724","prov":"서울","address":"서울 중구 신당4동 333-579번지","tel":"02-2234-0798","foundation":"사립"},{"id":21231,"name":"리라아트고등학교","type":"고등학교","website":"http://www.lila.hs.kr","lat":"37.5571280","lng":"126.9881910","prov":"서울","address":"서울특별시 중구 소파로2길 24","tel":"02-775-6546","foundation":"사립"},{"id":21232,"name":"성동고등학교","type":"고등학교","website":"http://www.sungdong.hs.kr","lat":"37.5641365","lng":"127.0232038","prov":"서울","address":"서울특별시 중구 신당5동 161번지","tel":"02-2237-2412","foundation":"공립"},{"id":21233,"name":"성동공업고등학교","type":"고등학교","website":"http://www.sdth.hs.kr","lat":"37.5693545","lng":"127.0171338","prov":"서울","address":"서울 중구 흥인동 1-","tel":"070-8685-7707","foundation":"공립"},{"id":21234,"name":"성동글로벌경영고등학교","type":"고등학교","website":"http://www.sdglobal.hs.kr","lat":"37.5656609","lng":"127.0132205","prov":"서울","address":"서울특별시 중구 신당1동 250-3","tel":"02-2252-1932","foundation":"공립"},{"id":21235,"name":"이화여자고등학교","type":"고등학교","website":"http://www.ewha.hs.kr","lat":"37.5657015","lng":"126.9712205","prov":"서울","address":"서울특별시 중구 정동 32번지","tel":"02-752-3353","foundation":"사립"},{"id":21236,"name":"이화여자외국어고등학교","type":"고등학교","website":"http://www.ewha-gfh.hs.kr","lat":"37.5617849","lng":"126.9711374","prov":"서울","address":"서울특별시 중구 순화동 1-","tel":"02-771-169","foundation":"사립"},{"id":21237,"name":"장충고등학교","type":"고등학교","website":"http://www.jangchung.hs.kr","lat":"37.5531457","lng":"127.0065905","prov":"서울","address":"서울 중구 동호로15길 93번지 (신당2동 432-460번지)","tel":"070-8686-7003","foundation":"사립"},{"id":21238,"name":"한양공업고등학교","type":"고등학교","website":"http://www.hanyang.hs.kr","lat":"37.5615738","lng":"127.0194523","prov":"서울","address":"서울특별시 중구 신당동 을지로 299","tel":"02-2238-518","foundation":"사립"},{"id":21239,"name":"환일고등학교","type":"고등학교","website":"http://hwanil.hs.kr","lat":"37.5641220","lng":"126.9738080","prov":"서울","address":"서울특별시 중구 218번지","tel":"02-390-7203","foundation":"사립"},{"id":21240,"name":"배문고등학교","type":"고등학교","website":"http://baemoon.cschool.net","lat":"37.5414503","lng":"126.9589812","prov":"서울","address":"서울특별시 용산구 효창원로 258(서계동)","tel":"02-3480-7100","foundation":"사립"},{"id":21241,"name":"보성여자고등학교","type":"고등학교","website":"http://www.bosung.hs.kr","lat":"37.5426751","lng":"126.9844960","prov":"서울","address":"서울특별시 용산구 용산동2가 1-1123번지","tel":"070-4000-3134","foundation":"사립"},{"id":21242,"name":"서울디지텍고등학교","type":"고등학교","website":"http://www.sdh.hs.kr","lat":"37.5299568","lng":"126.9944696","prov":"서울","address":"서울특별시 용산구 이태원2동 214-4 서울디지텍고등학교","tel":"02-798-364","foundation":"사립"},{"id":21243,"name":"선린인터넷고등학교","type":"고등학교","website":"http://www.sunrint.hs.kr","lat":"37.5427169","lng":"126.9663628","prov":"서울","address":"서울특별시 용산구 청파동3가 131-2","tel":"02-713-6213","foundation":"공립"},{"id":21244,"name":"성심여자고등학교","type":"고등학교","website":"http://sacredheart.hs.kr","lat":"37.5338992","lng":"126.9539593","prov":"서울","address":"서울특별시 용산구 원효로4가 1번지","tel":"02-702-550","foundation":"사립"},{"id":21245,"name":"신광여자고등학교","type":"고등학교","website":"http://www.shinkwang.hs.kr","lat":"37.5431703","lng":"126.9699957","prov":"서울","address":"서울특별시 용산구 청파동 3가 100번지(청파로 208)","tel":"02-710-6900","foundation":"사립"},{"id":21246,"name":"오산고등학교","type":"고등학교","website":"http://www.osan.hs.kr","lat":"37.5246450","lng":"127.0000902","prov":"서울","address":"서울 용산구 보광로7길 17","tel":"02-799-9602","foundation":"사립"},{"id":21247,"name":"용산고등학교","type":"고등학교","website":"http://www.yongsan.hs.kr","lat":"37.5453891","lng":"126.9794890","prov":"서울","address":"서울특별시 용산구 두텁바위로 60","tel":"02-3706-6700","foundation":"공립"},{"id":21248,"name":"용산공업고등학교","type":"고등학교","website":"http://www.yongsan-th.hs.kr","lat":"37.5243175","lng":"126.9671665","prov":"서울","address":"서울특별시 용산구 한강로 3가 65","tel":"02-6905-7777","foundation":"공립"},{"id":21249,"name":"중경고등학교","type":"고등학교","website":"http://jungkyung.hs.kr","lat":"37.5176026","lng":"126.9757149","prov":"서울","address":"서울특별시 용산구 이촌1동 300-302","tel":"02-793-4154","foundation":"공립"},{"id":21250,"name":"경일고등학교","type":"고등학교","website":"www.seoulkyungil.hs.kr","lat":"37.5435875","lng":"127.0480483","prov":"서울","address":"서울특별시 성동구 성수1가1동 22-27번지","tel":"070-4099-7007","foundation":"공립"},{"id":21251,"name":"덕수고등학교","type":"고등학교","website":"http://www.duksoo.hs.kr","lat":"37.5558658","lng":"127.0424482","prov":"서울","address":"서울특별시 성동구 행당동 70-28번지","tel":"0222925707","foundation":"공립"},{"id":21252,"name":"무학여자고등학교","type":"고등학교","website":"http://www.muhak.hs.kr","lat":"37.5547042","lng":"127.0337145","prov":"서울","address":"서울특별시 성동구 행당동 고산자로 197","tel":"02-2200-1882","foundation":"공립"},{"id":21253,"name":"서울방송고등학교","type":"고등학교","website":"http://www.seb.hs.kr","lat":"37.5473540","lng":"127.0105807","prov":"서울","address":"서울 성동구 옥수1동 556-1번지","tel":"02-2281-009","foundation":"공립"},{"id":21254,"name":"성수고등학교","type":"고등학교","website":"http://seoulseongsu.hs.kr","lat":"37.5479810","lng":"127.0387013","prov":"서울","address":"서울특별시 성동구 성수동1가 685-143","tel":"02-461-2276","foundation":"공립"},{"id":21255,"name":"성수공업고등학교","type":"고등학교","website":"http://www.sungsu.hs.kr","lat":"37.5395309","lng":"127.0555556","prov":"서울","address":"서울 성동구 성수2가1동 330-10","tel":"02-3409-0944","foundation":"공립"},{"id":21256,"name":"한양대학교사범대학부속고등학교","type":"고등학교","website":"http://www.hanyang-u.hs.kr","lat":"37.5624663","lng":"127.0467249","prov":"서울","address":"서울 성동구 사근동 223번지","tel":"02-2200-3505","foundation":"사립"},{"id":21257,"name":"건국대학교사범대학부속고등학교","type":"고등학교","website":"http://www.konkuk.hs.kr","lat":"37.5435547","lng":"127.0734560","prov":"서울","address":"서울특별시 광진구 화양동 ","tel":"02-446-9082","foundation":"사립"},{"id":21258,"name":"광남고등학교","type":"고등학교","website":"http://www.gwang-nam.hs.kr","lat":"37.5398897","lng":"127.1022460","prov":"서울","address":"서울 광진구 광장동 554-1","tel":"02-444-268","foundation":"공립"},{"id":21259,"name":"광양고등학교","type":"고등학교","website":"http://www.gwangyang.hs.kr","lat":"37.5293846","lng":"127.0855989","prov":"서울","address":"서울특별시 광진구 자양2동 674-1번지","tel":"02-446-1435","foundation":"공립"},{"id":21260,"name":"대원고등학교","type":"고등학교","website":"http://daewon-seoul.hs.kr","lat":"37.5630790","lng":"127.0889497","prov":"서울","address":"서울특별시 광진구 용마산로 22길 26번지","tel":"02-2204-1568","foundation":"사립"},{"id":21261,"name":"대원여자고등학교","type":"고등학교","website":"http://dwg.hs.kr","lat":"37.5630790","lng":"127.0889497","prov":"서울","address":"서울특별시 광진구 중곡4동 176-124","tel":"02-2204-1620","foundation":"사립"},{"id":21262,"name":"대원외국어고등학교","type":"고등학교","website":"http://www.dwfl.hs.kr/","lat":"37.5643777","lng":"127.0880345","prov":"서울","address":"서울특별시 광진구 용마산로 22길26 대원외국어고등학교","tel":"02-2204-1529","foundation":"사립"},{"id":21263,"name":"동국대학교사범대학부속여자고등학교","type":"고등학교","website":"http://donggukgirls.hs.kr","lat":"37.5425112","lng":"127.0867784","prov":"서울","address":"서울특별시 광진구 광나루로 36길 47","tel":"02-2049-1566","foundation":"사립"},{"id":21264,"name":"선화예술고등학교","type":"고등학교","website":"http://www.sunhwa.org","lat":"37.5502546","lng":"127.0875655","prov":"서울","address":"서울특별시 광진구 능동 25","tel":"02-2204-1380","foundation":"사립"},{"id":21265,"name":"자양고등학교","type":"고등학교","website":"http://www.jayang.hs.kr","lat":"37.5352363","lng":"127.0722325","prov":"서울","address":"서울특별시 광진구 뚝섬로 37길 28 (자양3동 524)","tel":"02-452-8386","foundation":"공립"},{"id":21266,"name":"경희고등학교","type":"고등학교","website":"http://kyunghee.cschool.net","lat":"37.6021710","lng":"127.0693198","prov":"서울","address":"서울특별시 동대문구 이문동 (이문1-3)","tel":"02-966-3782","foundation":"사립"},{"id":21267,"name":"경희여자고등학교","type":"고등학교","website":"www.kyunghee.hs.kr","lat":"37.5950926","lng":"127.0518338","prov":"서울","address":"서울특별시 동대문구 회기동 1번지","tel":"02-966-1248","foundation":"사립"},{"id":21268,"name":"대광고등학교","type":"고등학교","website":"http://www.dgh.hs.kr","lat":"37.5748653","lng":"127.0254662","prov":"서울","address":"서울특별시 동대문구 신설동 안암로 6가(신설동.대광고등학교)","tel":"02-940-2212","foundation":"사립"},{"id":21269,"name":"동국대학교사범대학부속고등학교","type":"고등학교","website":"http://www.ddbk.net","lat":"37.5736734","lng":"127.0733297","prov":"서울","address":"서울특별시 동대문구 장안벚꽃로 20","tel":"02-6913-1578","foundation":"사립"},{"id":21270,"name":"정화여자상업고등학교","type":"고등학교","website":"http://www.jeonghwa.hs.kr","lat":"37.5856168","lng":"127.0419074","prov":"서울","address":"서울특별시 동대문구 제기동 50","tel":"02-967-0178","foundation":"사립"},{"id":21271,"name":"청량고등학교","type":"고등학교","website":"http://www.chungryang.hs.kr","lat":"37.5887530","lng":"127.0510593","prov":"서울","address":"서울 동대문구 청량리1동 7번지","tel":"02-959-4362","foundation":"공립"},{"id":21272,"name":"해성국제컨벤션고등학교","type":"고등학교","website":"http://www.haesung.hs.kr/","lat":"37.5781451","lng":"127.0649607","prov":"서울","address":"서울특별시 동대문구 전농3동 90-3번지","tel":"070-8786-1313","foundation":"사립"},{"id":21273,"name":"해성여자고등학교","type":"고등학교","website":"http://www.haeseong-g.hs.kr","lat":"37.5781451","lng":"127.0649607","prov":"서울","address":"서울특별시 동대문구 전농3동 90-3","tel":"070-8786-1313","foundation":"사립"},{"id":21274,"name":"휘경공업고등학교","type":"고등학교","website":"www.hgt.hs.kr","lat":"37.5844089","lng":"127.0703174","prov":"서울","address":"서울특별시 동대문구 휘경동 겸재로 2","tel":"02-2216-3643","foundation":"공립"},{"id":21275,"name":"휘경여자고등학교","type":"고등학교","website":"http://hwikyung.hs.kr","lat":"37.5831849","lng":"127.0673783","prov":"서울","address":"서울특별시 동대문구 휘경동 43-7번지","tel":"02-2245-2307","foundation":"사립"},{"id":21276,"name":"휘봉고등학교","type":"고등학교","website":"http://hwibong.hs.kr","lat":"37.5853838","lng":"127.0685624","prov":"서울","address":"서울특별시 동대문구 휘경2동 43-","tel":"02-2116-7205","foundation":"공립"},{"id":21277,"name":"면목고등학교","type":"고등학교","website":"http://www.mmhs.hs.kr","lat":"37.5878783","lng":"127.0985663","prov":"서울","address":"서울특별시 중랑구 면목동 36-14 (산30번지)","tel":"02-435-0003","foundation":"공립"},{"id":21278,"name":"송곡고등학교","type":"고등학교","website":"http://www.sg.hs.kr","lat":"37.6015615","lng":"127.1092329","prov":"서울","address":"서울특별시 중랑구 양원역로 50 (망우동)","tel":"070-7114-5604","foundation":"사립"},{"id":21279,"name":"송곡관광고등학교","type":"고등학교","website":"http://www.sgi.hs.kr","lat":"37.6063172","lng":"127.1053091","prov":"서울","address":"서울특별시 중랑구 망우본동 252-1번지","tel":"02-434-4598","foundation":"사립"},{"id":21280,"name":"송곡여자고등학교","type":"고등학교","website":"http://www.songgok.hs.kr","lat":"37.6063172","lng":"127.1053091","prov":"서울","address":"서울특별시 중랑구 망우동 252-1번지","tel":"02-434-4598","foundation":"사립"},{"id":21281,"name":"신현고등학교","type":"고등학교","website":"http://www.shinhyeon.hs.kr/","lat":"37.6052281","lng":"127.0929502","prov":"서울","address":"서울특별시 중랑구 상봉1동 482번지","tel":"02-3422-2715","foundation":"공립"},{"id":21282,"name":"원묵고등학교","type":"고등학교","website":"http://wonmook.hs.kr","lat":"37.6160063","lng":"127.0828472","prov":"서울","address":"서울특별시 중랑구 숙선옹주로 82 원묵고등학교","tel":"02-3422-5700","foundation":"공립"},{"id":21283,"name":"이화여자대학교병설미디어고등학교","type":"고등학교","website":"http://www.ewhamedia.hs.kr","lat":"37.6037439","lng":"127.1049617","prov":"서울","address":"서울특별시 중랑구 망우본동 220번지","tel":"02-2209-0142","foundation":"사립"},{"id":21284,"name":"중화고등학교","type":"고등학교","website":"http://www.jung-hwa.hs.kr","lat":"37.6046784","lng":"127.0832703","prov":"서울","address":"서울특별시 중랑구 중화동 21-4","tel":"02-491-6807","foundation":"공립"},{"id":21285,"name":"태릉고등학교","type":"고등학교","website":"http://www.taereung.hs.kr","lat":"37.6188414","lng":"127.0849496","prov":"서울","address":"서울특별시 중랑구 묵1동 6번지","tel":"02-974-625","foundation":"공립"},{"id":21286,"name":"혜원여자고등학교","type":"고등학교","website":"http://www.hyewon.hs.kr","lat":"37.5929910","lng":"127.0967019","prov":"서울","address":"서울 중랑구 봉우재로 58길 39","tel":"02-434-6969","foundation":"사립"},{"id":21287,"name":"경동고등학교","type":"고등학교","website":"www.kyungdong.hs.kr","lat":"37.5861430","lng":"127.0149147","prov":"서울","address":"서울특별시 성북구 보문로 29길 49","tel":"02-928-2077","foundation":"공립"},{"id":21288,"name":"고려대학교사범대학부속고등학교","type":"고등학교","website":"http://koreahi.hs.kr","lat":"37.6087243","lng":"127.0041325","prov":"서울","address":"서울특별시 성북구 정릉3동 (정릉3동. 산 1-2)","tel":"02-914-7483","foundation":"사립"},{"id":21289,"name":"고명정보산업고등학교","type":"고등학교","website":"http://www.komyung.hs.kr","lat":"37.5975051","lng":"127.0199016","prov":"서울","address":"서울특별시 성북구 돈암동 45-88번지","tel":"02-926-2886","foundation":"사립"},{"id":21290,"name":"대일관광고등학교","type":"고등학교","website":"http://www.daeil-tour.hs.kr","lat":"37.6131234","lng":"127.0131714","prov":"서울","address":"서울특별시 성북구 정릉4동 17-6","tel":"02-940-7373","foundation":"사립"},{"id":21291,"name":"대일외국어고등학교","type":"고등학교","website":"www.daeil.or.kr","lat":"37.6136207","lng":"127.0135850","prov":"서울","address":"서울특별시 성북구 정릉동 산 16-36","tel":"02-940-0698","foundation":"사립"},{"id":21292,"name":"동구마케팅고등학교","type":"고등학교","website":"http://donggoo.hs.kr","lat":"37.5914423","lng":"127.0052663","prov":"서울","address":"서울특별시 성북구 성북동 성북로 8길 7","tel":"02-762-1349","foundation":"사립"},{"id":21293,"name":"서울대학교사범대학부설고등학교","type":"고등학교","website":"www.snu.hs.kr","lat":"37.6001709","lng":"127.0316020","prov":"서울","address":"서울특별시 성북구 종암동 (종암동)","tel":"02-913-7306","foundation":"국립"},{"id":21294,"name":"서울도시과학기술고등학교","type":"고등학교","website":"http://www.sust.hs.kr","lat":"37.6071893","lng":"127.0319175","prov":"서울","address":"서울특별시 성북구 종암로 196 서울도시과학기술고등학교","tel":"02-940-2682","foundation":"공립"},{"id":21295,"name":"석관고등학교","type":"고등학교","website":"http://www.seokkwan.hs.kr","lat":"37.6100670","lng":"127.0664232","prov":"서울","address":"서울특별시 성북구 석관동 77-","tel":"02-958-1165","foundation":"공립"},{"id":21296,"name":"성신여자고등학교","type":"고등학교","website":"http://www.sungshin.hs.kr","lat":"37.6013606","lng":"127.0223866","prov":"서울","address":"서울특별시 성북구 돈암동 26가길 80","tel":"02-6930-9114","foundation":"사립"},{"id":21297,"name":"용문고등학교","type":"고등학교","website":"http://www.ymoon.hs.kr/","lat":"37.5881284","lng":"127.0250507","prov":"서울","address":"서울특별시 성북구 안암동 2가 96-","tel":"02-928-387","foundation":"사립"},{"id":21298,"name":"한성여자고등학교","type":"고등학교","website":"http://www.hansung-g.hs.kr","lat":"37.5879290","lng":"127.0103009","prov":"서울","address":"서울특별시 성북구 삼선동2가 117","tel":"02-742-2845","foundation":"사립"},{"id":21299,"name":"홍익대학교사범대학부속고등학교","type":"고등학교","website":"http://www.hongik.hs.kr","lat":"37.549979","lng":"126.925266","prov":"서울","address":"서울특별시 성북구 성북로 14가길 23(성북동)","tel":"02-762-0827","foundation":"사립"},{"id":21300,"name":"미양고등학교","type":"고등학교","website":"http://mi-yang.hs.kr","lat":"37.6232973","lng":"127.0122428","prov":"서울","address":"서울특별시 강북구 인수봉로 39-","tel":"02-982-6104","foundation":"공립"},{"id":21301,"name":"삼각산고등학교","type":"고등학교","website":"http://samgaksan.hs.kr","lat":"37.6180853","lng":"127.0212694","prov":"서울","address":"서울특별시 강북구 삼각산동 1265~1268 1267-38","tel":"070-7525-2216","foundation":"공립"},{"id":21302,"name":"성암국제무역고등학교","type":"고등학교","website":"http://www.seongam.hs.kr","lat":"37.6207354","lng":"127.0244484","prov":"서울","address":"서울특별시 강북구 미아동 320-","tel":"02-2179-1888","foundation":"사립"},{"id":21303,"name":"신일고등학교","type":"고등학교","website":"http://www.shin-il.hs.kr","lat":"37.6282500","lng":"127.0277130","prov":"서울","address":"서울특별시 강북구 미아3동 신일고등학교 193-1번지","tel":"02-989-415","foundation":"사립"},{"id":21304,"name":"영훈고등학교","type":"고등학교","website":"http://www.younghoon.hs.kr","lat":"37.6137650","lng":"127.0278332","prov":"서울","address":"서울특별시 강북구 미아동 471-2","tel":"02-988-0266","foundation":"사립"},{"id":21305,"name":"창문여자고등학교","type":"고등학교","website":"http://www.changmun.hs.kr","lat":"37.6159740","lng":"127.0336574","prov":"서울","address":"서울특별시 강북구 송중동 월계로 6","tel":"02-986-1705","foundation":"사립"},{"id":21306,"name":"혜화여자고등학교","type":"고등학교","website":"http://hyehwa-h.hs.kr","lat":"37.6310519","lng":"127.0127157","prov":"서울","address":"서울 강북구 수유1동 468-43","tel":"02-987-8342","foundation":"공립"},{"id":21307,"name":"누원고등학교","type":"고등학교","website":"http://www.noowon.hs.kr","lat":"37.6855142","lng":"127.0498868","prov":"서울","address":"서울특별시 도봉구 마들로 849","tel":"02-3492-7594","foundation":"공립"},{"id":21308,"name":"도봉고등학교","type":"고등학교","website":"http://db2004.hs.kr","lat":"37.6867435","lng":"127.0424876","prov":"서울","address":"서울특별시 도봉구 도봉동 556번지 도봉고등학교","tel":"02-3491-4285","foundation":"공립"},{"id":21309,"name":"서울문화고등학교","type":"고등학교","website":"http://www.seoulculture.hs.kr","lat":"37.6638554","lng":"127.0475357","prov":"서울","address":"서울특별시 도봉구 방학동 723","tel":"02-955-9100","foundation":"공립"},{"id":21310,"name":"서울외국어고등학교","type":"고등학교","website":"http://www.sfl.hs.kr","lat":"37.6429430","lng":"127.0528770","prov":"서울","address":"서울특별시 도봉구 덕릉로 66길 22 (창동. 서울외국어고등학교)","tel":"070-7602-346","foundation":"사립"},{"id":21311,"name":"선덕고등학교","type":"고등학교","website":"http://sunduck.hs.kr","lat":"37.6556790","lng":"127.0270581","prov":"서울","address":"서울특별시 도봉구 쌍문4동 263번지","tel":"02-997-411","foundation":"사립"},{"id":21312,"name":"세그루패션디자인고등학교","type":"고등학교","website":"http://www.sfd.hs.kr","lat":"37.6556790","lng":"127.0270581","prov":"서울","address":"서울특별시 도봉구 쌍문동 263번지","tel":"02-993-0114","foundation":"사립"},{"id":21313,"name":"자운고등학교","type":"고등학교","website":"http://jawoon.hs.kr","lat":"37.6592612","lng":"127.0504663","prov":"서울","address":"서울특별시 도봉구 창4동 1번지","tel":"02-998-2929","foundation":"공립"},{"id":21314,"name":"정의여자고등학교","type":"고등학교","website":"http://jeongeui.hs.kr","lat":"37.6529105","lng":"127.0318063","prov":"서울","address":"서울특별시 도봉구 쌍문4동 150-1번지","tel":"02-992-5104","foundation":"사립"},{"id":21315,"name":"창동고등학교","type":"고등학교","website":"http://changdong.hs.kr","lat":"37.6509764","lng":"127.0383612","prov":"서울","address":"서울특별시 도봉구 창동 694-10","tel":"070-4377-3607","foundation":"공립"},{"id":21316,"name":"효문고등학교","type":"고등학교","website":"http://www.hyomun.hs.kr","lat":"37.6520737","lng":"127.0183236","prov":"서울","address":"서울특별시 도봉구 쌍문1동 468","tel":"02-992-0778","foundation":"공립"},{"id":21317,"name":"경기기계공업고등학교","type":"고등학교","website":"http://www.ggmt.hs.kr","lat":"37.6334304","lng":"127.0748323","prov":"서울","address":"서울특별시 노원구 하계동 78","tel":"070-7602-1608","foundation":"공립"},{"id":21318,"name":"광운전자공업고등학교","type":"고등학교","website":"http://www.kwangwoon.hs.kr/","lat":"37.6208454","lng":"127.0561467","prov":"서울","address":"서울특별시 노원구 월계4동 500번지","tel":"02-918-7763","foundation":"사립"},{"id":21319,"name":"노원고등학교","type":"고등학교","website":"http://www.nowon.hs.kr","lat":"37.6624531","lng":"127.0531016","prov":"서울","address":"서울특별시 노원구 상계8동 664 664번지","tel":"02-937-0078","foundation":"공립"},{"id":21320,"name":"대진고등학교","type":"고등학교","website":"http://www.dae-jin.hs.kr","lat":"37.6367492","lng":"127.0741221","prov":"서울","address":"서울특별시 노원구 공릉로 62가길 47 대진고등학교","tel":"02-976-0067","foundation":"사립"},{"id":21321,"name":"대진여자고등학교","type":"고등학교","website":"http://www.daejinw.hs.kr","lat":"37.6464458","lng":"127.0672803","prov":"서울","address":"서울 노원구 중계3동 514-2번지","tel":"02-979-2327","foundation":"사립"},{"id":21322,"name":"동산정보산업고등학교","type":"고등학교","website":"http://www.seouldongsan.hs.kr","lat":"37.6301266","lng":"127.0741844","prov":"서울","address":"서울특별시 노원구 공릉2동 (481-3)","tel":"02-971-0903","foundation":"사립"},{"id":21323,"name":"미래산업과학고등학교","type":"고등학교","website":"http://www.mist.hs.kr","lat":"37.6590008","lng":"127.0786348","prov":"서울","address":"서울특별시 노원구 덕릉로82길 54","tel":"070-7600-970","foundation":"사립"},{"id":21324,"name":"불암고등학교","type":"고등학교","website":"http://www.buram.hs.kr","lat":"37.6472483","lng":"127.0778939","prov":"서울","address":"서울특별시 노원구 중계본동 363~368 364-10","tel":"02-935-9944","foundation":"공립"},{"id":21325,"name":"상계고등학교","type":"고등학교","website":"http://www.sanggye.hs.kr","lat":"37.6526368","lng":"127.0558484","prov":"서울","address":"서울특별시 노원구 상계동 738 상계고등학교","tel":"070-867-8260","foundation":"공립"},{"id":21326,"name":"상명고등학교","type":"고등학교","website":"http://www.sangmyung.hs.kr","lat":"37.6494211","lng":"127.0682006","prov":"서울","address":"서울특별시 노원구 중계동 515","tel":"02-971-621","foundation":"사립"},{"id":21327,"name":"서라벌고등학교","type":"고등학교","website":"http://www.sorabol.hs.kr","lat":"37.6449003","lng":"127.0758322","prov":"서울","address":"서울특별시 노원구 중계동 313번지","tel":"0220922274","foundation":"사립"},{"id":21328,"name":"서울아이티고등학교","type":"고등학교","website":"http://www.seoulit.hs.kr","lat":"37.6330567","lng":"127.0662923","prov":"서울","address":"서울특별시 노원구 섬밭로 299 504번지","tel":"070-7606-4812","foundation":"사립"},{"id":21329,"name":"수락고등학교","type":"고등학교","website":"http://www.surak.net","lat":"37.6827335","lng":"127.0535593","prov":"서울","address":"서울특별시 노원구 상계1동 1253번지","tel":"070-8677-2106","foundation":"공립"},{"id":21330,"name":"염광고등학교","type":"고등학교","website":"http://yumkwang.hs.kr","lat":"37.6324443","lng":"127.0507382","prov":"서울","address":"서울 노원구 월계2동 염광학원 820번지","tel":"02-905-422","foundation":"사립"},{"id":21331,"name":"염광여자메디텍고등학교","type":"고등학교","website":"http://www.ykm.hs.kr","lat":"37.6295827","lng":"127.0491809","prov":"서울","address":"서울특별시 노원구 월계동 820","tel":"02-994-3105","foundation":"사립"},{"id":21332,"name":"영신간호비즈니스고등학교","type":"고등학교","website":"http://www.youngshin.hs.kr","lat":"37.6521121","lng":"127.0828722","prov":"서울","address":"서울특별시 노원구 중계동 118번지","tel":"02-951-5772","foundation":"사립"},{"id":21333,"name":"영신여자고등학교","type":"고등학교","website":"http://www.ys.hs.kr","lat":"37.6521121","lng":"127.0828722","prov":"서울","address":"서울특별시 노원구 중계동 118번지","tel":"02-930-8455","foundation":"사립"},{"id":21334,"name":"용화여자고등학교","type":"고등학교","website":"http://www.yonghwa.hs.kr/","lat":"37.6583031","lng":"127.0629311","prov":"서울","address":"서울특별시 노원구 동일로 146","tel":"02-950-3522","foundation":"사립"},{"id":21335,"name":"월계고등학교","type":"고등학교","website":"http://wg.hs.kr","lat":"37.6317394","lng":"127.0486867","prov":"서울","address":"서울특별시 노원구 월계동 778","tel":"02-900-0063","foundation":"공립"},{"id":21336,"name":"인덕공업고등학교","type":"고등학교","website":"http://www.induk.hs.kr","lat":"37.6313747","lng":"127.0555547","prov":"서울","address":"서울특별시 노원구 초안산로 12","tel":"02-904-3805","foundation":"사립"},{"id":21337,"name":"재현고등학교","type":"고등학교","website":"http://www.jaehyun.hs.kr","lat":"37.6615474","lng":"127.0814504","prov":"서울","address":"서울특별시 노원구 중계4동 129-1번지","tel":"02-932-4812","foundation":"사립"},{"id":21338,"name":"청원고등학교","type":"고등학교","website":"http://www.cheongwon.hs.kr","lat":"37.6660284","lng":"127.0620129","prov":"서울","address":"서울특별시 노원구 상계9동 641번지","tel":"02-3399-777","foundation":"사립"},{"id":21339,"name":"청원여자고등학교","type":"고등학교","website":"http://www.cheongwon-gh.hs.kr","lat":"37.6637459","lng":"127.0609037","prov":"서울","address":"서울특별시 노원구 상계9동 641번지 (한글비석로 506번지 )","tel":"02-3399-7813","foundation":"사립"},{"id":21340,"name":"한국삼육고등학교","type":"고등학교","website":"http://www.sahmyook.hs.kr","lat":"37.6211412","lng":"127.0832634","prov":"서울","address":"서울 노원구 공릉2동 815번지","tel":"02-6395-367","foundation":"사립"},{"id":21341,"name":"혜성여자고등학교","type":"고등학교","website":"http://www.hyesung.hs.kr","lat":"37.6405110","lng":"127.0736034","prov":"서울","address":"서울특별시 노원구 노원로 16길 2","tel":"01092225779","foundation":"사립"},{"id":21342,"name":"대성고등학교","type":"고등학교","website":"http://www.dae-sung.hs.kr","lat":"37.6231185","lng":"126.9098086","prov":"서울","address":"서울특별시 은평구 갈현2동 대성고등학교","tel":"02-350-0500","foundation":"사립"},{"id":21343,"name":"동명여자고등학교","type":"고등학교","website":"http://dongmyung.hs.kr","lat":"37.6142107","lng":"126.9241697","prov":"서울","address":"서울특별시 은평구 대조동 91-20번지","tel":"02-385-0655","foundation":"사립"},{"id":21344,"name":"동명여자정보산업고등학교","type":"고등학교","website":"http://www.dmgii.hs.kr","lat":"37.6142107","lng":"126.9241697","prov":"서울","address":"서울 은평구 대조동 91-20","tel":"02-386-4044","foundation":"사립"},{"id":21345,"name":"선일여자고등학교","type":"고등학교","website":"http://www.sunil.hs.kr","lat":"37.6207746","lng":"126.9125272","prov":"서울","address":"서울특별시 은평구 갈현2동 갈현로29길 27(갈현2동 240-1)","tel":"02-355-9994","foundation":"사립"},{"id":21346,"name":"선일이비즈니스고등학교","type":"고등학교","website":"http://www.ebiz.hs.kr","lat":"37.6197497","lng":"126.9126173","prov":"서울","address":"서울특별시 은평구 갈현2동 240-1번지","tel":"02-352-8025","foundation":"사립"},{"id":21347,"name":"선정고등학교","type":"고등학교","website":"http://www.sunjung.hs.kr","lat":"37.6183360","lng":"126.9087107","prov":"서울","address":"서울특별시 은평구 갈현동 227-5번지","tel":"02-3156-1714","foundation":"사립"},{"id":21348,"name":"선정관광고등학교","type":"고등학교","website":"http://www.sjt.hs.kr","lat":"37.628194","lng":"126.907413","prov":"서울","address":"서울특별시 은평구 서오릉로 20길 19(갈현동)","tel":"02-3156-1630","foundation":"사립"},{"id":21349,"name":"세명컴퓨터고등학교","type":"고등학교","website":"http://www.smc.hs.kr","lat":"37.6275889","lng":"126.9231578","prov":"서울","address":"서울특별시 은평구 통일로 92가길 33","tel":"02-354-132","foundation":"사립"},{"id":21350,"name":"숭실고등학교","type":"고등학교","website":"http://www.soongsil.net","lat":"37.5931250","lng":"126.9032327","prov":"서울","address":"서울 은평구 신사2동 300-88번지","tel":"02-373-5910","foundation":"사립"},{"id":21351,"name":"신도고등학교","type":"고등학교","website":"http://www.sindo.hs.kr","lat":"37.6290170","lng":"126.9184277","prov":"서울","address":"서울특별시 은평구 진관동 243-","tel":"02-3157-0019","foundation":"공립"},{"id":21352,"name":"신진자동차고등학교","type":"고등학교","website":"http://www.shinjin.hs.kr","lat":"37.5983749","lng":"126.9184276","prov":"서울","address":"서울특별시 은평구 응암동 114-1번지","tel":"02-355-9487","foundation":"사립"},{"id":21353,"name":"예일디자인고등학교","type":"고등학교","website":"http://www.yale-dh.hs.kr/","lat":"37.6117223","lng":"126.9103085","prov":"서울","address":"서울특별시 은평구 구산동 연서로 117","tel":"02-380-0976","foundation":"사립"},{"id":21354,"name":"예일여자고등학교","type":"고등학교","website":"http://www.yale.hs.kr","lat":"37.6101791","lng":"126.9151623","prov":"서울","address":"서울특별시 은평구 연서로 117","tel":"02-380-0972","foundation":"사립"},{"id":21355,"name":"은평고등학교","type":"고등학교","website":"http://www.ep.hs.kr","lat":"37.6090598","lng":"126.9058665","prov":"서울","address":"서울특별시 은평구 구산동 41-","tel":"02-383-0873","foundation":"공립"},{"id":21356,"name":"은평메디텍고등학교","type":"고등학교","website":"http://eunpyeong.hs.kr","lat":"37.6351699","lng":"126.9293750","prov":"서울","address":"서울특별시 은평구 진관동 86","tel":"070-4020-680","foundation":"사립"},{"id":21357,"name":"진관고등학교","type":"고등학교","website":"http://www.jingwan.hs.kr","lat":"37.6418308","lng":"126.9141572","prov":"서울","address":"서울특별시 은평구 진관동 392-","tel":"02-358-0783","foundation":"공립"},{"id":21358,"name":"충암고등학교","type":"고등학교","website":"http://www.cham.hs.kr","lat":"37.5863299","lng":"126.9209006","prov":"서울","address":"서울특별시 은평구 응암동 가좌로5길 5 충암고등학교","tel":"02-309-0236","foundation":"사립"},{"id":21359,"name":"하나고등학교","type":"고등학교","website":"http://www.hana.hs.kr","lat":"37.6423689","lng":"126.9384282","prov":"서울","address":"서울특별시 은평구 진관동 129","tel":"02-6913-111","foundation":"사립"},{"id":21360,"name":"가재울고등학교","type":"고등학교","website":"http://www.gajaeul.hs.kr","lat":"37.5741180","lng":"126.9095737","prov":"서울","address":"서울특별시 서대문구 북가좌동 144-706","tel":"02-307-6606","foundation":"공립"},{"id":21361,"name":"명지고등학교","type":"고등학교","website":"http://www.myongjigo.net/","lat":"37.5848709","lng":"126.9270773","prov":"서울","address":"서울특별시 서대문구 명지2길 56","tel":"02-303-1540","foundation":"사립"},{"id":21362,"name":"이화여자대학교사범대학부속이화금란고등학교","type":"고등학교","website":"http://www.edaebugo.hs.kr","lat":"37.5645969","lng":"126.9460935","prov":"서울","address":"서울특별시 서대문구 성산로 560","tel":"02-361-6333","foundation":"사립"},{"id":21363,"name":"인창고등학교","type":"고등학교","website":"http://www.inchang.ne.kr/","lat":"37.5651781","lng":"126.9639075","prov":"서울","address":"서울특별시 서대문구 경기대로 65","tel":"02-363-3393","foundation":"사립"},{"id":21364,"name":"중앙여자고등학교","type":"고등학교","website":"http://www.중앙여고.kr","lat":"37.5629468","lng":"126.9542673","prov":"서울","address":"서울 서대문구 북아현3동 북아현로11가길 7","tel":"02-393-5126","foundation":"사립"},{"id":21365,"name":"한성고등학교","type":"고등학교","website":"http://www.hanseong.hs.kr","lat":"37.5599248","lng":"126.9554000","prov":"서울","address":"서울특별시 서대문구 북아현로3길 24번지(한성중.고등학교)","tel":"02-363-4942","foundation":"사립"},{"id":21366,"name":"한성과학고등학교","type":"고등학교","website":"http://hansung-sh.hs.kr","lat":"37.5759104","lng":"126.9527945","prov":"서울","address":"서울특별시 서대문구 통일로 279-79번지","tel":"02-6917-0000","foundation":"공립"},{"id":21367,"name":"경성고등학교","type":"고등학교","website":"http://www.gyeongseong.hs.kr","lat":"37.5631085","lng":"126.9193893","prov":"서울","address":"서울특별시 마포구 연남동 369-1번지","tel":"02-3140-1244","foundation":"사립"},{"id":21368,"name":"광성고등학교","type":"고등학교","website":"http://www.kwangsung.hs.kr","lat":"37.5486226","lng":"126.9363687","prov":"서울","address":"서울특별시 마포구 신수로 8길 20","tel":"02-703-3457","foundation":"사립"},{"id":21369,"name":"상암고등학교","type":"고등학교","website":"http://www.sangam.hs.kr","lat":"37.5789979","lng":"126.8824955","prov":"서울","address":"서울특별시 마포구 상암동 355-","tel":"02-373-004","foundation":"공립"},{"id":21370,"name":"서울디자인고등학교","type":"고등학교","website":"http://www.seodi.hs.kr","lat":"37.5463299","lng":"126.9473737","prov":"서울","address":"서울특별시 마포구 염리동 150","tel":"02-716-821","foundation":"사립"},{"id":21371,"name":"서울여자고등학교","type":"고등학교","website":"http://www.seoulgs.hs.kr","lat":"37.5478121","lng":"126.9485819","prov":"서울","address":"서울특별시 마포구 백범로 25길 34","tel":"02-703-2216","foundation":"공립"},{"id":21372,"name":"숭문고등학교","type":"고등학교","website":"http://www.soongmoon.hs.kr","lat":"37.551340","lng":"126.947238","prov":"서울","address":"서울특별시 마포구 대흥동 숭문길 99 (대흥동)","tel":"02-715-446","foundation":"사립"},{"id":21373,"name":"한세사이버보안고등학교","type":"고등학교","website":"http://www.hansei.org","lat":"37.5516694","lng":"126.9520292","prov":"서울","address":"서울특별시 마포구 아현동 457-30","tel":"02-362-0134","foundation":"사립"},{"id":21374,"name":"홍익대학교사범대학부속여자고등학교","type":"고등학교","website":"http://www.hongik68.hs.kr","lat":"37.5582738","lng":"126.9089354","prov":"서울","address":"서울특별시 마포구 성미산로 5","tel":"02-331-7305","foundation":"사립"},{"id":21375,"name":"홍익디자인고등학교","type":"고등학교","website":"http://www.hid.hs.kr","lat":"37.5631085","lng":"126.9193893","prov":"서울","address":"서울특별시 마포구 연남동 369-1번지","tel":"02-3140-1309","foundation":"사립"},{"id":21376,"name":"강서고등학교","type":"고등학교","website":"http://www.gangseo.hs.kr","lat":"37.5364895","lng":"126.8663661","prov":"서울","address":"서울특별시 양천구 목동 735","tel":"02-2642-0725","foundation":"사립"},{"id":21377,"name":"광영고등학교","type":"고등학교","website":"http://www.ky.hs.kr","lat":"37.5377900","lng":"126.8241074","prov":"서울","address":"서울특별시 양천구 신월3동 43-3번지","tel":"02-2650-2300","foundation":"사립"},{"id":21378,"name":"광영여자고등학교","type":"고등학교","website":"http://www.kyg.hs.kr","lat":"37.5385288","lng":"126.8249235","prov":"서울","address":"서울특별시 양천구 남부순환로 30길 17 (신월3동 43-3)","tel":"070-4173-6005","foundation":"사립"},{"id":21379,"name":"금옥여자고등학교","type":"고등학교","website":"http://www.geumok.hs.kr","lat":"37.5106219","lng":"126.8442611","prov":"서울","address":"서울특별시 양천구 신정3동 729번지","tel":"02-2086-7507","foundation":"공립"},{"id":21380,"name":"목동고등학교","type":"고등학교","website":"http://mok.cschool.net/","lat":"37.5090728","lng":"126.8607466","prov":"서울","address":"서울 양천구 신정7동 325-8번지","tel":"02-2652-1705","foundation":"사립"},{"id":21381,"name":"백암고등학교","type":"고등학교","website":"http://www.paekahm.hs.kr","lat":"37.5121391","lng":"126.8426069","prov":"서울","address":"서울특별시 양천구 신정로 13길 16 백암고등학교","tel":"02-2696-0110","foundation":"사립"},{"id":21382,"name":"서울금융고등학교","type":"고등학교","website":"http://www.seoulfc.hs.kr","lat":"37.5378303","lng":"126.8255403","prov":"서울","address":"서울특별시 양천구 신월3동 43-8번지","tel":"02-2694-3710","foundation":"공립"},{"id":21383,"name":"서울영상고등학교","type":"고등학교","website":"youngsang.hs.kr","lat":"37.5231812","lng":"126.8600909","prov":"서울","address":"서울특별시 양천구 신정4동 984번지","tel":"02-2602-712","foundation":"사립"},{"id":21384,"name":"신목고등학교","type":"고등학교","website":"http://shinmok.hs.kr","lat":"37.5128286","lng":"126.8734611","prov":"서울","address":"서울특별시 양천구 안양천로 739","tel":"070-8720-5010","foundation":"공립"},{"id":21385,"name":"신서고등학교","type":"고등학교","website":"www.sinseo.hs.kr","lat":"37.5231812","lng":"126.8600909","prov":"서울","address":"서울특별시 양천구 신정4동 984-","tel":"02-2690-0025","foundation":"공립"},{"id":21386,"name":"양정고등학교","type":"고등학교","website":"http://www.yangchung.hs.kr","lat":"37.5347501","lng":"126.8871706","prov":"서울","address":"서울특별시 양천구 목동 911-2","tel":"02-2649-707","foundation":"사립"},{"id":21387,"name":"양천고등학교","type":"고등학교","website":"http://yangcheon.cschool.net","lat":"37.5088072","lng":"126.8459167","prov":"서울","address":"서울특별시 양천구 신정3동 산109-1번지","tel":"02-2605-5996","foundation":"사립"},{"id":21388,"name":"진명여자고등학교","type":"고등학교","website":"http://www.jm.hs.kr","lat":"37.5237980","lng":"126.8661396","prov":"서울","address":"서울특별시 양천구 목동 927-6","tel":"02-2643-171","foundation":"사립"},{"id":21389,"name":"한가람고등학교","type":"고등학교","website":"http://www.hangaram.hs.kr","lat":"37.5191774","lng":"126.8649545","prov":"서울","address":"서울 양천구 목동 서로 15(909-1번지)","tel":"02-2642-3862","foundation":"사립"},{"id":21390,"name":"강서공업고등학교","type":"고등학교","website":"http://gangseo-th.hs.kr","lat":"37.5754999","lng":"126.8160214","prov":"서울","address":"서울특별시 강서구 방화3동 834번지","tel":"02-2666-2106","foundation":"공립"},{"id":21391,"name":"경복비즈니스고등학교","type":"고등학교","website":"http://www.kbb.hs.kr","lat":"37.5580540","lng":"126.8514662","prov":"서울","address":"서울 강서구 등촌동 131번지","tel":"070-7790-0997","foundation":"사립"},{"id":21392,"name":"경복여자고등학교","type":"고등학교","website":"http://www.kyungbokschool.net","lat":"37.5580540","lng":"126.8514662","prov":"서울","address":"서울특별시 강서구 등촌동 131번지","tel":"070-7790-099","foundation":"사립"},{"id":21393,"name":"공항고등학교","type":"고등학교","website":"http://www.konghang.hs.kr","lat":"37.5687537","lng":"126.8057922","prov":"서울","address":"서울 강서구 방화2동 541번지","tel":"02-2664-6874","foundation":"공립"},{"id":21394,"name":"대일고등학교","type":"고등학교","website":"http://www.daeil.hs.kr","lat":"37.5400345","lng":"126.8628887","prov":"서울","address":"서울특별시 강서구 등촌동 등촌로105 대일고등학교","tel":"070-4020-6400","foundation":"사립"},{"id":21395,"name":"덕원여자고등학교","type":"고등학교","website":"www.deokwon.hs.kr","lat":"37.5546422","lng":"126.8346360","prov":"서울","address":"서울특별시 강서구 내발산동 덕원여자고등학교 91-44(내발산동 산59-2)","tel":"02-2660-7800","foundation":"사립"},{"id":21396,"name":"덕원예술고등학교","type":"고등학교","website":"http://www.dwarts.hs.kr","lat":"37.5486871","lng":"126.8288306","prov":"서울","address":"서울 강서구 내발산동 산59-2번지","tel":"02-2660-791","foundation":"사립"},{"id":21397,"name":"동양고등학교","type":"고등학교","website":"http://www.dongyang.hs.kr","lat":"37.5687587","lng":"126.8470842","prov":"서울","address":"서울특별시 강서구 허준로 50","tel":"02-2657-0878","foundation":"사립"},{"id":21398,"name":"등촌고등학교","type":"고등학교","website":"www.dch.hs.kr","lat":"37.5625935","lng":"126.8450161","prov":"서울","address":"서울 강서구 등촌동 691-2번지","tel":"02-3665-6045","foundation":"공립"},{"id":21399,"name":"마포고등학교","type":"고등학교","website":"http://www.mapo.hs.kr","lat":"37.5588666","lng":"126.8477051","prov":"서울","address":"서울특별시 강서구 등촌3동 403번지","tel":"02-3663-2582","foundation":"사립"},{"id":21400,"name":"명덕고등학교","type":"고등학교","website":"http://www.myungduk.hs.kr","lat":"37.5528485","lng":"126.8324547","prov":"서울","address":"서울 강서구 강서로 47길 34-10 명덕고등학교 (내발산동. 명덕고등학교)","tel":"02-2664-8817","foundation":"사립"},{"id":21401,"name":"명덕여자고등학교","type":"고등학교","website":"http://www.mdgh.hs.kr","lat":"37.5536011","lng":"126.8347305","prov":"서울","address":"서울특별시 강서구 강서로 47길 34-10","tel":"02-2664-8814","foundation":"사립"},{"id":21402,"name":"명덕외국어고등학교","type":"고등학교","website":"http://www.mdfh.or.kr","lat":"37.5541170","lng":"126.8333450","prov":"서울","address":"서울특별시 강서구 내발산동 169-1 명덕외국어고등학교","tel":"02-2665-8823","foundation":"사립"},{"id":21403,"name":"세민정보고등학교","type":"고등학교","website":"http://www.semin.hs.kr","lat":"37.5697071","lng":"126.8170866","prov":"서울","address":"서울특별시 강서구 방화동 242-8번지","tel":"02-2665-5900","foundation":"사립"},{"id":21404,"name":"세현고등학교","type":"고등학교","website":"http://sehyun.hs.kr","lat":"37.5699423","lng":"126.8417999","prov":"서울","address":"서울특별시 강서구 가양동 149","tel":"02-3663-1495","foundation":"공립"},{"id":21405,"name":"수명고등학교","type":"고등학교","website":"http://www.sumyeong.hs.kr","lat":"37.5497013","lng":"126.8242688","prov":"서울","address":"서울특별시 강서구 내발산동 758 (수명로2가 15)","tel":"02-2667-8700","foundation":"공립"},{"id":21406,"name":"신정여자상업고등학교","type":"고등학교","website":"http://www.shinjung.hs.kr","lat":"37.5380245","lng":"126.8568925","prov":"서울","address":"서울특별시 강서구 화곡4동 477-1번지","tel":"02-2644-3542","foundation":"사립"},{"id":21407,"name":"영등포공업고등학교","type":"고등학교","website":"http://www.younggong.hs.kr","lat":"37.5692245","lng":"126.8504967","prov":"서울","address":"서울특별시 강서구 가양2동 1468","tel":"02-2659-2983","foundation":"사립"},{"id":21408,"name":"영일고등학교","type":"고등학교","website":"http://youngil.hs.kr","lat":"37.5425909","lng":"126.8624812","prov":"서울","address":"서울 강서구 등촌2동 51가길 26","tel":"02-2653-8134","foundation":"사립"},{"id":21409,"name":"한광고등학교","type":"고등학교","website":"www.hankwang.hs.kr","lat":"37.5372175","lng":"126.8598040","prov":"서울","address":"서울특별시 강서구 등촌로13길 110 (화곡4동 488-2) 한광고등학교","tel":"070-7458-1003","foundation":"사립"},{"id":21410,"name":"한서고등학교","type":"고등학교","website":"http://www.hanseo.hs.kr","lat":"37.5746018","lng":"126.8081599","prov":"서울","address":"서울 강서구 방화동 478-34번지","tel":"02-2664-3535","foundation":"사립"},{"id":21411,"name":"화곡고등학교","type":"고등학교","website":"http://www.hwagok.hs.kr","lat":"37.5500339","lng":"126.8321504","prov":"서울","address":"서울특별시 강서구 강서로45길 69 (내발산동. 화곡고등학교)","tel":"070-8277-2906","foundation":"사립"},{"id":21412,"name":"화곡보건경영고등학교","type":"고등학교","website":"http://www.hwagok-gii.hs.kr","lat":"37.5488204","lng":"126.8328267","prov":"서울","address":"서울특별시 강서구 강서로 45길 70","tel":"02-2662-1450","foundation":"사립"},{"id":21413,"name":"경인고등학교","type":"고등학교","website":"http://www.kyeongin.hs.kr","lat":"37.496955","lng":"126.865782","prov":"서울","address":"서울특별시 구로구 경인로46길 31 (고척동)","tel":"02-2618-3043","foundation":"공립"},{"id":21414,"name":"고척고등학교","type":"고등학교","website":"http://www.gocheok.hs.kr/","lat":"37.5079557","lng":"126.8519002","prov":"서울","address":"서울특별시 구로구 중앙로 15길 162호 (고척동)","tel":"02-2684-1593","foundation":"공립"},{"id":21415,"name":"구로고등학교","type":"고등학교","website":"http://kuro.hs.kr","lat":"37.4984981","lng":"126.8896924","prov":"서울","address":"서울특별시 구로구 가마산로 27길 45","tel":"02-851-2064","foundation":"공립"},{"id":21416,"name":"구일고등학교","type":"고등학교","website":"http://www.guil.hs.kr","lat":"37.4929862","lng":"126.8757043","prov":"서울","address":"서울특별시 구로구 구로1동 90-5","tel":"02-858-2549","foundation":"공립"},{"id":21417,"name":"구현고등학교","type":"고등학교","website":"http://www.guhyun.hs.kr","lat":"37.5020869","lng":"126.8742638","prov":"서울","address":"서울특별시 구로구 구로동 625-92","tel":"02-2628-891","foundation":"공립"},{"id":21418,"name":"덕일전자공업고등학교","type":"고등학교","website":"http://deogil.hs.kr","lat":"37.4965415","lng":"126.8480119","prov":"서울","address":"서울특별시 구로구 오류동 (오류동 199-1번지)","tel":"02-2613-2762","foundation":"사립"},{"id":21419,"name":"서서울생활과학고등학교","type":"고등학교","website":"http://ssls.hs.kr","lat":"37.5032117","lng":"126.8281605","prov":"서울","address":"서울특별시 구로구 궁동 35","tel":"02-2613-5272","foundation":"사립"},{"id":21420,"name":"서울공연예술고등학교","type":"고등학교","website":"http://sopa.hs.kr","lat":"37.5000864","lng":"126.8322027","prov":"서울","address":"서울특별시 구로구 오리로22 나길 16-26","tel":"02-3281-9760","foundation":"사립"},{"id":21421,"name":"세종과학고등학교","type":"고등학교","website":"http://www.sjsh.hs.kr","lat":"37.4971964","lng":"126.8272537","prov":"서울","address":"서울특별시 구로구 궁동 산18-2","tel":"02-2060-4133","foundation":"공립"},{"id":21422,"name":"신도림고등학교","type":"고등학교","website":"http://www.shindorim.hs.kr","lat":"37.5122164","lng":"126.8864678","prov":"서울","address":"서울특별시 구로구 신도림동 경인로 67길 159","tel":"02-2068-7979","foundation":"공립"},{"id":21423,"name":"예림디자인고등학교","type":"고등학교","website":"http://guro.hs.kr","lat":"37.4996945","lng":"126.8282053","prov":"서울","address":"서울특별시 구로구 궁동 110-1번지","tel":"02-2688-3515","foundation":"사립"},{"id":21424,"name":"오류고등학교","type":"고등학교","website":"http://oryu.hs.kr","lat":"37.4996945","lng":"126.8282053","prov":"서울","address":"서울특별시 구로구 궁동 110-1번지","tel":"02-2684-2300","foundation":"사립"},{"id":21425,"name":"우신고등학교","type":"고등학교","website":"http://wooshin.hs.kr","lat":"37.4933032","lng":"126.8304578","prov":"서울","address":"서울 구로구 부일로길 917","tel":"02-2610-1544","foundation":"사립"},{"id":21426,"name":"유한공업고등학교","type":"고등학교","website":"http://www.yuhan.hs.kr","lat":"37.4878646","lng":"126.8240073","prov":"서울","address":"서울특별시 구로구 항동 1-7번지","tel":"02-2610-0952","foundation":"사립"},{"id":21427,"name":"금천고등학교","type":"고등학교","website":"http://keumcheon.hs.kr/","lat":"37.4454814","lng":"126.9048155","prov":"서울","address":"서울특별시 금천구 시흥대로38길 26 금천고등학교","tel":"02-896-3186","foundation":"공립"},{"id":21428,"name":"독산고등학교","type":"고등학교","website":"http://www.doksan.hs.kr","lat":"37.4768558","lng":"126.9089196","prov":"서울","address":"서울특별시 금천구 독산3동 894~908 907-34","tel":"02-857-6248","foundation":"공립"},{"id":21429,"name":"동일여자고등학교","type":"고등학교","website":"http://www.dongilg.hs.kr","lat":"37.4513899","lng":"126.9164020","prov":"서울","address":"서울특별시 금천구 시흥2동 산100-4번지","tel":"02-803-9805","foundation":"사립"},{"id":21430,"name":"동일여자상업고등학교","type":"고등학교","website":"http://www.dongil-cd.hs.kr","lat":"37.4513899","lng":"126.9164020","prov":"서울","address":"서울특별시 금천구 시흥2동 산100-4번지","tel":"02-803-9805","foundation":"사립"},{"id":21431,"name":"문일고등학교","type":"고등학교","website":"http://moonil.hs.kr","lat":"37.449265","lng":"126.899162","prov":"서울","address":"서울특별시 금천구 시흥대로47길 45(시흥동)","tel":"02-802-230","foundation":"사립"},{"id":21432,"name":"전통예술고등학교","type":"고등학교","website":"http://www.kugak-am.hs.kr","lat":"37.4454814","lng":"126.9048155","prov":"서울","address":"서울특별시 금천구 시흥대로 38길 62 전통예술고등학교","tel":"02-896-1094","foundation":"국립"},{"id":21433,"name":"관악고등학교","type":"고등학교","website":"http://kwan-ak.hs.kr","lat":"37.5222646","lng":"126.8830742","prov":"서울","address":"서울특별시 영등포구 양평동 2가 23","tel":"02-2633-5954","foundation":"공립"},{"id":21434,"name":"대영고등학교","type":"고등학교","website":"http://www.dy.hs.kr","lat":"37.5038675","lng":"126.9053647","prov":"서울","address":"서울 영등포구 도림로86길 342번지","tel":"02-847-2018","foundation":"공립"},{"id":21435,"name":"선유고등학교","type":"고등학교","website":"http://www.seonyoo.hs.kr","lat":"37.5345175","lng":"126.8970494","prov":"서울","address":"서울특별시 영등포구 양평동4가 3~81 10번지","tel":"02-2069-0036","foundation":"공립"},{"id":21436,"name":"여의도고등학교","type":"고등학교","website":"http://yeoido.hs.kr","lat":"37.5252751","lng":"126.9336842","prov":"서울","address":"서울 영등포구 여의도동 30-1번지","tel":"070-8661-3103","foundation":"공립"},{"id":21437,"name":"여의도여자고등학교","type":"고등학교","website":"http://www.youido-gh.hs.kr","lat":"37.5229622","lng":"126.9349887","prov":"서울","address":"서울특별시 영등포구 여의도동 40-2번지","tel":"02-3780-4400","foundation":"공립"},{"id":21438,"name":"영등포여자고등학교","type":"고등학교","website":"http://ydpg.hs.kr","lat":"37.5153771","lng":"126.9152716","prov":"서울","address":"서울특별시 영등포구 신길동 184-3","tel":"02-843-0479","foundation":"공립"},{"id":21439,"name":"영신고등학교","type":"고등학교","website":"http://www.ysh.or.kr","lat":"37.4977349","lng":"126.9098123","prov":"서울","address":"서울특별시 영등포구 대방천로14길 18","tel":"070-4018-7239","foundation":"공립"},{"id":21440,"name":"장훈고등학교","type":"고등학교","website":"http://www.janghoon.hs.kr","lat":"37.5133645","lng":"126.9151152","prov":"서울","address":"서울특별시 영등포구 신길동 176번지","tel":"02-842-692","foundation":"사립"},{"id":21441,"name":"한강미디어고등학교","type":"고등학교","website":"http://www.hangang-ech.hs.kr","lat":"37.5391173","lng":"126.8972396","prov":"서울","address":"서울특별시 영등포구 양평동 4가 315-1번지","tel":"02-2633-910","foundation":"공립"},{"id":21442,"name":"경문고등학교","type":"고등학교","website":"http://www.kyungmoon.hs.kr/","lat":"37.4998616","lng":"126.9742991","prov":"서울","address":"서울 동작구 동작동 산 동작대로 17","tel":"02-535-130","foundation":"사립"},{"id":21443,"name":"동작고등학교","type":"고등학교","website":"http://www.dongjak.hs.kr","lat":"37.4824062","lng":"126.9663898","prov":"서울","address":"서울특별시 동작구 사당5동 솔밭로 5","tel":"02-588-4197","foundation":"공립"},{"id":21444,"name":"서울공업고등학교","type":"고등학교","website":"http://www.seoul-th.hs.kr","lat":"37.5005259","lng":"126.9244790","prov":"서울","address":"서울특별시 동작구 대방동1길 46 서울공업고등학교","tel":"070-8640-3125","foundation":"공립"},{"id":21445,"name":"성남고등학교","type":"고등학교","website":"http://www.sungnam.hs.kr","lat":"37.5053010","lng":"126.9265387","prov":"서울","address":"서울특별시 동작구 대방동 375-1호","tel":"02-815-1334","foundation":"사립"},{"id":21446,"name":"수도여자고등학교","type":"고등학교","website":"http://www.sudo-gh.hs.kr","lat":"37.4931834","lng":"126.9155463","prov":"서울","address":"서울특별시 동작구 신대방동 470-13","tel":"02-2102-3506","foundation":"공립"},{"id":21447,"name":"숭의여자고등학교","type":"고등학교","website":"http://www.soongeui.hs.kr","lat":"37.5080962","lng":"126.9262539","prov":"서울","address":"서울 동작구 대방동 36길 79 (대방동)","tel":"02-810-7800","foundation":"사립"},{"id":21448,"name":"영등포고등학교","type":"고등학교","website":"http://www.ydp.hs.kr","lat":"37.508728","lng":"126.933963","prov":"서울","address":"서울특별시 동작구 등용로 8길(대방동) 5(대방동13-2)","tel":"02-816-8324","foundation":"공립"},{"id":21449,"name":"광신고등학교","type":"고등학교","website":"http://www.kwangshin.hs.kr","lat":"37.4651377","lng":"126.9256312","prov":"서울","address":"서울특별시 관악구 삼성동 328","tel":"02-881-8506","foundation":"사립"},{"id":21450,"name":"광신정보산업고등학교","type":"고등학교","website":"http://kwangshin-i.hs.kr","lat":"37.4651377","lng":"126.9256312","prov":"서울","address":"서울특별시 관악구 신림동 328번지","tel":"02-881-8509","foundation":"사립"},{"id":21451,"name":"구암고등학교","type":"고등학교","website":"http://www.guahm.hs.kr","lat":"37.4897544","lng":"126.9505066","prov":"서울","address":"서울특별시 관악구 봉천동 1712-25","tel":"02-879-9812","foundation":"공립"},{"id":21452,"name":"남강고등학교","type":"고등학교","website":"http://www.namkang.hs.kr","lat":"37.4719936","lng":"126.9230369","prov":"서울","address":"서울특별시 관악구 신림동 627-","tel":"02-839-170","foundation":"사립"},{"id":21453,"name":"당곡고등학교","type":"고등학교","website":"http://www.danggok.hs.kr","lat":"37.4919353","lng":"126.9330422","prov":"서울","address":"서울특별시 관악구 보라매동 682","tel":"02-6717-5200","foundation":"공립"},{"id":21454,"name":"미림여자고등학교","type":"고등학교","website":"http://www.mirim.hs.kr","lat":"37.4665516","lng":"126.9329080","prov":"서울","address":"서울특별시 관악구 호암로 546","tel":"02-886-1814","foundation":"사립"},{"id":21455,"name":"미림여자정보과학고등학교","type":"고등학교","website":"http://www.e-mirim.hs.kr","lat":"37.4629914","lng":"126.9523916","prov":"서울","address":"서울특별시 관악구 대학동 546(신림동)","tel":"02-872-4072","foundation":"사립"},{"id":21456,"name":"삼성고등학교","type":"고등학교","website":"http://www.samsung.hs.kr","lat":"37.4666568","lng":"126.9425870","prov":"서울","address":"서울특별시 관악구 대학동 신림로 4","tel":"02-871-7582","foundation":"공립"},{"id":21457,"name":"서울관광고등학교","type":"고등학교","website":"http://www.seoul-tour.hs.kr","lat":"37.4881856","lng":"126.9433233","prov":"서울","address":"서울 관악구 은천로 15길 25","tel":"02-886-9165","foundation":"사립"},{"id":21458,"name":"서울문영여자고등학교","type":"고등학교","website":"http://www.moonyoung.seoul.kr","lat":"37.4791001","lng":"126.9416142","prov":"서울","address":"서울 관악구 봉천4동 문영여고 85","tel":"02-873-3622","foundation":"사립"},{"id":21459,"name":"서울미술고등학교","type":"고등학교","website":"http://www.seoul-art.or.kr","lat":"37.4767600","lng":"126.9671283","prov":"서울","address":"서울특별시 관악구 남부순환로 247길 26","tel":"02-877-9000","foundation":"사립"},{"id":21460,"name":"서울여자상업고등학교","type":"고등학교","website":"http://www.sys.hs.kr","lat":"37.4791001","lng":"126.9416142","prov":"서울","address":"서울특별시 관악구 청룡동 서울여상 85","tel":"02-873-3613","foundation":"사립"},{"id":21461,"name":"성보고등학교","type":"고등학교","website":"http://www.sungbo.hs.kr","lat":"37.4801177","lng":"126.9207947","prov":"서울","address":"서울특별시 관악구 신림동 1690번지","tel":"02-863-3734","foundation":"사립"},{"id":21462,"name":"신림고등학교","type":"고등학교","website":"www.sillim.hs.kr","lat":"37.4783730","lng":"126.9187972","prov":"서울","address":"서울특별시 관악구 미성동 산197-","tel":"070-8611-9000","foundation":"공립"},{"id":21463,"name":"영락고등학교","type":"고등학교","website":"http://www.yrgo.kr","lat":"37.4763786","lng":"126.9441976","prov":"서울","address":"서울특별시 관악구 청룡동 영락고등학교 1558-1번지","tel":"02-884-1006","foundation":"사립"},{"id":21464,"name":"영락유헬스고등학교","type":"고등학교","website":"http://www.youngnak-c.hs.kr","lat":"37.4767940","lng":"126.9448938","prov":"서울","address":"서울특별시 관악구 청룡16길25 영락유헬스고등학교","tel":"02-884-1882","foundation":"사립"},{"id":21465,"name":"인헌고등학교","type":"고등학교","website":"http://www.inhun.hs.kr","lat":"37.4715662","lng":"126.9702013","prov":"서울","address":"서울특별시 관악구 인헌동 174-5","tel":"02-886-6253","foundation":"공립"},{"id":21466,"name":"동덕여자고등학교","type":"고등학교","website":"http://www.dongduk.hs.kr","lat":"37.4759072","lng":"126.9921374","prov":"서울","address":"서울특별시 서초구 방배3동 동덕여자고등학교","tel":"02-586-5418","foundation":"사립"},{"id":21467,"name":"반포고등학교","type":"고등학교","website":"http://www.banpo.hs.kr","lat":"37.5022177","lng":"127.0161530","prov":"서울","address":"서울특별시 서초구 반포1동 30-19","tel":"02-2258-4300","foundation":"공립"},{"id":21468,"name":"상문고등학교","type":"고등학교","website":"http://www.sangmoon.hs.kr","lat":"37.4835749","lng":"127.0049694","prov":"서울","address":"서울특별시 서초구 방배동 명달로 45길","tel":"02-586-314","foundation":"사립"},{"id":21469,"name":"서문여자고등학교","type":"고등학교","website":"http://suhmoon.hs.kr","lat":"37.4885122","lng":"126.9853011","prov":"서울","address":"서울특별시 서초구 방배4동 동광로 12길 84(방배동)","tel":"02-591-458","foundation":"사립"},{"id":21470,"name":"서울고등학교","type":"고등학교","website":"http://www.seoul.hs.kr","lat":"37.4842697","lng":"127.0053990","prov":"서울","address":"서울특별시 서초구 서초3동 1526-1번지","tel":"02-582-815","foundation":"공립"},{"id":21471,"name":"서울전자고등학교","type":"고등학교","website":"http://e-seoul.hs.kr","lat":"37.4693105","lng":"126.9884150","prov":"서울","address":"서울특별시 서초구 과천대로 852-23","tel":"070-8660-4905","foundation":"공립"},{"id":21472,"name":"서초고등학교","type":"고등학교","website":"www.seocho.hs.kr","lat":"37.4893551","lng":"127.0057059","prov":"서울","address":"서울특별시 서초구 서초동 1504","tel":"02-584-4234","foundation":"공립"},{"id":21473,"name":"세화고등학교","type":"고등학교","website":"http://www.se-hwa.hs.kr","lat":"37.5004593","lng":"126.9861093","prov":"서울","address":"서울특별시 서초구 반포본동 753","tel":"02-594-4886","foundation":"사립"},{"id":21474,"name":"세화여자고등학교","type":"고등학교","website":"http://www.sehwa-gs.hs.kr","lat":"37.5018559","lng":"126.9922636","prov":"서울","address":"서울특별시 서초구 반포동 753번지","tel":"02-594-4886","foundation":"사립"},{"id":21475,"name":"양재고등학교","type":"고등학교","website":"http://www.yangjae.hs.kr","lat":"37.4827746","lng":"127.0324921","prov":"서울","address":"서울특별시 서초구 서초2동 1376-4","tel":"02-571-4459","foundation":"공립"},{"id":21476,"name":"언남고등학교","type":"고등학교","website":"http://www.eonnam.hs.kr","lat":"37.4725868","lng":"127.0427180","prov":"서울","address":"서울 서초구 양재동 309","tel":"02-575-2680","foundation":"공립"},{"id":21477,"name":"개포고등학교","type":"고등학교","website":"http://www.gaepo.hs.kr","lat":"37.4846776","lng":"127.0596014","prov":"서울","address":"서울특별시 강남구 개포동 173번지","tel":"02-576-3333","foundation":"공립"},{"id":21478,"name":"경기고등학교","type":"고등학교","website":"http://kyunggi.hs.kr/","lat":"37.5185705","lng":"127.0587680","prov":"서울","address":"서울 강남구 삼성동 영동대로 643","tel":"02-3496-7313","foundation":"공립"},{"id":21479,"name":"경기여자고등학교","type":"고등학교","website":"http://www.kgg.hs.kr","lat":"37.4868240","lng":"127.0660933","prov":"서울","address":"서울특별시 강남구 개포동 152","tel":"02-573-6797","foundation":"공립"},{"id":21480,"name":"국악고등학교","type":"고등학교","website":"http://www.gukak.hs.kr","lat":"37.4759780","lng":"127.0516132","prov":"서울","address":"서울특별시 강남구 개포4동 1272번지","tel":"02-3460-0507","foundation":"국립"},{"id":21481,"name":"단국공업고등학교","type":"고등학교","website":"http://www.dankook.hs.kr","lat":"37.4953357","lng":"127.0564936","prov":"서울","address":"서울특별시 강남구 대치1동 1013","tel":"02-566-295","foundation":"사립"},{"id":21482,"name":"단국대학교사범대학부속고등학교","type":"고등학교","website":"http://www.dan-kook.hs.kr","lat":"37.4953357","lng":"127.0564936","prov":"서울","address":"서울특별시 강남구 대치동 1013","tel":"02-2191-2602","foundation":"사립"},{"id":21483,"name":"대진디자인고등학교","type":"고등학교","website":"http://www.daejindesign.hs.kr/","lat":"37.4904401","lng":"127.0960046","prov":"서울","address":"서울특별시 강남구 수서동 733","tel":"02-2226-1147","foundation":"사립"},{"id":21484,"name":"서울로봇고등학교","type":"고등학교","website":"http://www.seoulrobot.hs.kr/","lat":"37.4807426","lng":"127.0843750","prov":"서울","address":"서울 강남구 일원동 738","tel":"02-2226-5344","foundation":"공립"},{"id":21485,"name":"서울세종고등학교","type":"고등학교","website":"http://www.seoulsejong.hs.kr/","lat":"37.4864403","lng":"127.0961272","prov":"서울","address":"서울특별시 강남구 수서동 71","tel":"070-8668-311","foundation":"사립"},{"id":21486,"name":"수도전기공업고등학교","type":"고등학교","website":"http://www.sudo.hs.kr","lat":"37.4862680","lng":"127.0695176","prov":"서울","address":"서울특별시 강남구 개포동 개포로 410","tel":"070-4673-9907","foundation":"사립"},{"id":21487,"name":"숙명여자고등학교","type":"고등학교","website":"http://www.sookmyung.hs.kr","lat":"37.4866565","lng":"127.0400215","prov":"서울","address":"서울특별시 강남구 납부순환로 2807 도곡동(91)","tel":"02-3462-501","foundation":"사립"},{"id":21488,"name":"압구정고등학교","type":"고등학교","website":"http://www.apgujeong.hs.kr/","lat":"37.5305954","lng":"127.0306881","prov":"서울","address":"서울 강남구 압구정1동 470번지","tel":"070-8255-5202","foundation":"공립"},{"id":21489,"name":"영동고등학교","type":"고등학교","website":"http://www.yd.hs.kr","lat":"37.5205869","lng":"127.0426288","prov":"서울","address":"서울특별시 강남구 선릉로 742번지","tel":"02-542-507","foundation":"사립"},{"id":21490,"name":"은광여자고등학교","type":"고등학교","website":"http://www.eunkwang.hs.kr","lat":"37.4879414","lng":"127.0359252","prov":"서울","address":"서울특별시 강남구 도곡1동 938-10번지","tel":"02-3462-2005","foundation":"사립"},{"id":21491,"name":"중동고등학교","type":"고등학교","website":"www.joongdong.hs.kr","lat":"37.4920734","lng":"127.0796293","prov":"서울","address":"서울 강남구 일원1동 일원로7","tel":"02-3411-0100","foundation":"사립"},{"id":21492,"name":"중산고등학교","type":"고등학교","website":" ","lat":"37.4856530","lng":"127.0808471","prov":"서울","address":"서울특별시 강남구 일원로14길22 (일원동.중산고등학교)","tel":"02-2226-216","foundation":"사립"},{"id":21493,"name":"중앙대학교사범대학부속고등학교","type":"고등학교","website":"http://www.cau.hs.kr","lat":"37.4939896","lng":"127.0526581","prov":"서울","address":"서울특별시 강남구 선릉로 207 (도곡동 108)","tel":"02-579-4005","foundation":"사립"},{"id":21494,"name":"진선여자고등학교","type":"고등학교","website":"http://www.jinseon.hs.kr","lat":"37.5017540","lng":"127.0476387","prov":"서울","address":"서울특별시 강남구 역삼2동 713번지","tel":"02-2148-0410","foundation":"사립"},{"id":21495,"name":"청담고등학교","type":"고등학교","website":"http://www.chungdam.hs.kr","lat":"37.5332620","lng":"127.0281879","prov":"서울","address":"서울특별시 강남구 압구정2동 526","tel":"02-3496-8302","foundation":"공립"},{"id":21496,"name":"현대고등학교","type":"고등학교","website":"http://hyundai.hs.kr","lat":"37.5305954","lng":"127.0306881","prov":"서울","address":"서울 강남구 압구정1동 425번지","tel":"02-546-6323","foundation":"사립"},{"id":21497,"name":"휘문고등학교","type":"고등학교","website":"http://www.whimoon.hs.kr","lat":"37.5049510","lng":"127.0620662","prov":"서울","address":"서울특별시 강남구 대치2동 952-1번지","tel":"070-7090-0300","foundation":"사립"},{"id":21498,"name":"가락고등학교","type":"고등학교","website":"http://www.garak.hs.kr","lat":"37.5011923","lng":"127.1165911","prov":"서울","address":"서울특별시 송파구 송파동 172","tel":"02-416-4657","foundation":"공립"},{"id":21499,"name":"문정고등학교","type":"고등학교","website":"http://mj.hs.kr","lat":"37.4847089","lng":"127.1267288","prov":"서울","address":"서울특별시 송파구 문정동 90","tel":"02-406-6758","foundation":"공립"},{"id":21500,"name":"문현고등학교","type":"고등학교","website":"http://www.munhyeon.hs.kr/","lat":"37.4812764","lng":"127.1287497","prov":"서울","address":"서울시 송파구 충민로 115","tel":"070-4014-4800","foundation":"공립"},{"id":21501,"name":"방산고등학교","type":"고등학교","website":"www.bangsan.hs.kr","lat":"37.5086433","lng":"127.1203075","prov":"서울","address":"서울특별시 송파구 오금로 27길 18 (방이동 220-5)","tel":"02-418-2600","foundation":"공립"},{"id":21502,"name":"배명고등학교","type":"고등학교","website":"http://www.bm.hs.kr","lat":"37.5048783","lng":"127.0902105","prov":"서울","address":"서울특별시 송파구 삼전동 11길 (삼전동 172-1번지)","tel":"02-414-5820","foundation":"사립"},{"id":21503,"name":"보성고등학교","type":"고등학교","website":"http://www.posung.hs.kr","lat":"37.5195022","lng":"127.1351642","prov":"서울","address":"서울특별시 송파구 방이동 89-22번지","tel":"02-2152-2552","foundation":"사립"},{"id":21504,"name":"보인고등학교","type":"고등학교","website":"http://www.boin.hs.kr","lat":"37.4972660","lng":"127.1388757","prov":"서울","address":"서울 송파구 오금동 162","tel":"02-2043-602","foundation":"사립"},{"id":21505,"name":"서울체육고등학교","type":"고등학교","website":"http://seoul-ph.hs.kr","lat":"37.5216734","lng":"127.1305790","prov":"서울","address":"서울특별시 송파구 방이동 88-14번지","tel":"02-2140-9903","foundation":"공립"},{"id":21506,"name":"송파공업고등학교","type":"고등학교","website":"http://www.songpa-th.hs.kr","lat":"37.4911479","lng":"127.1434964","prov":"서울","address":"서울특별시 송파구 양산로 21 송파공업고등학교","tel":"02-6711-0506","foundation":"공립"},{"id":21507,"name":"영동일고등학교","type":"고등학교","website":"http://www.ydi.hs.kr","lat":"37.5099074","lng":"127.0897897","prov":"서울","address":"서울특별시 송파구 석촌호수로 93번지","tel":"02-430-6822","foundation":"사립"},{"id":21508,"name":"영파여자고등학교","type":"고등학교","website":"http://youngpa.hs.kr","lat":"37.5326565","lng":"127.1202571","prov":"서울","address":"서울특별시 송파구 풍납2동 501번지","tel":"02-483-888","foundation":"사립"},{"id":21509,"name":"오금고등학교","type":"고등학교","website":"http://www.ogum.hs.kr","lat":"37.4993959","lng":"127.1254327","prov":"서울","address":"서울특별시 송파구 중대로 247 (오금동 34-3)","tel":"02-406-0592","foundation":"공립"},{"id":21510,"name":"일신여자상업고등학교","type":"고등학교","website":"http://www.ilshin.hs.kr","lat":"37.5017159","lng":"127.1135991","prov":"서울","address":"서울특별시 송파구 송파동 99-2","tel":"02-2140-8222","foundation":"사립"},{"id":21511,"name":"잠신고등학교","type":"고등학교","website":"http://www.jamsin.or.kr","lat":"37.5105708","lng":"127.0915428","prov":"서울","address":"서울특별시 송파구 잠실로 24 (잠실동 22-2)","tel":"02-417-8770","foundation":"공립"},{"id":21512,"name":"잠실고등학교","type":"고등학교","website":"http://www.jamsil.hs.kr","lat":"37.5211214","lng":"127.1094588","prov":"서울","address":"서울특별시 송파구 신천동 17-","tel":"02-2141-3700","foundation":"공립"},{"id":21513,"name":"잠실여자고등학교","type":"고등학교","website":"http://www.jamsilg.hs.kr","lat":"37.5017159","lng":"127.1135991","prov":"서울","address":"서울 송파구 송파동 99-2","tel":"02-2140-8100","foundation":"사립"},{"id":21514,"name":"잠일고등학교","type":"고등학교","website":"http://www.jamil.hs.kr","lat":"37.5140261","lng":"127.0814053","prov":"서울","address":"서울특별시 송파구 잠실동 19-2","tel":"02-2141-2005","foundation":"공립"},{"id":21515,"name":"정신여자고등학교","type":"고등학교","website":"http://www.chungshin.hs.kr","lat":"37.5091964","lng":"127.0727415","prov":"서울","address":"서울특별시 송파구 잠실동 50-4번지","tel":"02-423-2775","foundation":"사립"},{"id":21516,"name":"창덕여자고등학교","type":"고등학교","website":"http://www.changduk.hs.kr","lat":"37.5163989","lng":"127.1399737","prov":"서울","address":"서울특별시 송파구 방이동 89-6","tel":"02-401-4924","foundation":"공립"},{"id":21517,"name":"강동고등학교","type":"고등학교","website":"http://kangdong.hs.kr","lat":"37.5501839","lng":"127.1611438","prov":"서울","address":"서울특별시 강동구 구천면로 572","tel":"02-427-0233","foundation":"사립"},{"id":21518,"name":"강일고등학교","type":"고등학교","website":"http://www.gang-il.hs.kr","lat":"37.5649609","lng":"127.1771117","prov":"서울","address":"서울특별시 강동구 강일동 685-","tel":"02-428-680","foundation":"공립"},{"id":21519,"name":"광문고등학교","type":"고등학교","website":"http://www.gwangmun.com","lat":"37.5602563","lng":"127.1585555","prov":"서울","address":"서울특별시 강동구 고덕동 295","tel":"02-427-2872","foundation":"사립"},{"id":21520,"name":"동북고등학교","type":"고등학교","website":"http://dongbuk.hs.kr","lat":"37.5200101","lng":"127.1406733","prov":"서울","address":"서울특별시 강동구 둔촌동 180-2","tel":"02-477-2280","foundation":"사립"},{"id":21521,"name":"둔촌고등학교","type":"고등학교","website":"http://doonchon.hs.kr","lat":"37.5326256","lng":"127.1452879","prov":"서울","address":"서울특별시 강동구 명일로140 (둔촌동79-3)","tel":"02-485-9873","foundation":"공립"},{"id":21522,"name":"명일여자고등학교","type":"고등학교","website":"http://www.myungil.hs.kr","lat":"37.5498550","lng":"127.1500544","prov":"서울","address":"서울특별시 강동구 명일동 40","tel":"02-481-8192","foundation":"공립"},{"id":21523,"name":"배재고등학교","type":"고등학교","website":"www.paichai.hs.kr","lat":"37.5584823","lng":"127.1449248","prov":"서울","address":"서울특별시 강동구 고덕1동 313번지/고덕동길227","tel":"02-441-1670","foundation":"사립"},{"id":21524,"name":"상일미디어고등학교","type":"고등학교","website":"http://www.sangilmedia.hs.kr","lat":"37.5489526","lng":"127.1701365","prov":"서울","address":"서울 강동구 상일동 189번지","tel":"02-428-0733","foundation":"사립"},{"id":21525,"name":"상일여자고등학교","type":"고등학교","website":"http://sangil.hs.kr","lat":"37.5492626","lng":"127.1696458","prov":"서울","address":"서울특별시 강동구 상일동 상일여자고등학교","tel":"02-428-0435","foundation":"사립"},{"id":21526,"name":"선사고등학교","type":"고등학교","website":"http://www.sunsa.hs.kr","lat":"37.5564791","lng":"127.1359719","prov":"서울","address":"서울 강동구 암사동 448","tel":"02-222-4592","foundation":"공립"},{"id":21527,"name":"성덕고등학교","type":"고등학교","website":"http://www.seongdeok.com","lat":"37.5495007","lng":"127.1425564","prov":"서울","address":"서울특별시 강동구 구천면로 396","tel":"02-475-4620","foundation":"사립"},{"id":21528,"name":"한영고등학교","type":"고등학교","website":"http://hanyoung.hs.kr","lat":"37.5489092","lng":"127.1581466","prov":"서울","address":"서울 강동구 동남로 832","tel":"02-426-2098","foundation":"사립"},{"id":21529,"name":"한영외국어고등학교","type":"고등학교","website":"http://www.hyfl.hs.kr","lat":"37.5489092","lng":"127.1581466","prov":"서울","address":"서울 강동구 상일동 166번지 166","tel":"02-426-2098","foundation":"사립"},{"id":21530,"name":"현강정보고등학교","type":"고등학교","website":"http://www.seoul-chs.hs.kr","lat":"37.5592535","lng":"127.1576771","prov":"서울","address":"서울특별시 강동구 고덕2동 295-1번지","tel":"02-3427-7400","foundation":"사립"},{"id":21531,"name":"남성여자고등학교","type":"고등학교","website":"http://www.psnamsung.hs.kr","lat":"35.1065749","lng":"129.0335554","prov":"부산","address":"부산광역시 중구 샘길 14(대청동1가) 남성여자고등학교","tel":"051-461-0512","foundation":"사립"},{"id":21532,"name":"동주여자고등학교","type":"고등학교","website":"http://www.dongju.hs.kr","lat":"35.0998969","lng":"129.0300921","prov":"부산","address":"부산광역시 중구 광복동 중앙로18 동주여자고등학교","tel":"051-240-3006","foundation":"사립"},{"id":21533,"name":"부산디지털고등학교","type":"고등학교","website":"http://digital.hs.kr","lat":"35.1088400","lng":"129.0325090","prov":"부산","address":"부산광역시 중구 대청동4가   10번지 부산디지털고등학교","tel":"051-460-0300","foundation":"사립"},{"id":21534,"name":"혜광고등학교","type":"고등학교","website":"www.hyekwang.hs.kr","lat":"35.109505","lng":"129.025104","prov":"부산","address":"부산 중구 망양로 259번길 5 (보수동1가)","tel":"051-250-1000","foundation":"사립"},{"id":21535,"name":"경남고등학교","type":"고등학교","website":"http://kyungnam.hs.kr","lat":"35.1205605","lng":"129.0203150","prov":"부산","address":"부산광역시 서구 동대신동3가 경남고등학교","tel":"051-250-5000","foundation":"공립"},{"id":21536,"name":"경성전자고등학교","type":"고등학교","website":"http://kse.hs.kr","lat":"35.1160608","lng":"129.0124265","prov":"부산","address":"부산광역시 서구 서대신동3가 184번지","tel":"051-253-2454","foundation":"사립"},{"id":21537,"name":"부경고등학교","type":"고등학교","website":"http://www.saja.hs.kr/","lat":"35.1148666","lng":"129.0130380","prov":"부산","address":"부산광역시 서구 서대신동 3가 521번지 부경고등학교","tel":"051-600-8555","foundation":"공립"},{"id":21538,"name":"부산관광고등학교","type":"고등학교","website":"http://www.bstour.hs.kr","lat":"35.0823898","lng":"129.0223291","prov":"부산","address":"부산광역시 서구 남부민동 611-20","tel":"051-248-3123","foundation":"사립"},{"id":21539,"name":"부산서여자고등학교","type":"고등학교","website":"http://www.seo-gh.hs.kr","lat":"35.1136724","lng":"129.0218706","prov":"부산","address":"부산광역시 서구 동대신동2가   75-2번지 부산서여자고등학교","tel":"051-248-1565","foundation":"공립"},{"id":21540,"name":"알로이시오전자기계고등학교","type":"고등학교","website":"http://www.aloysius.hs.kr","lat":"35.0830370","lng":"129.0132889","prov":"부산","address":"부산광역시 서구 암남동 7-62번지 알로이시오전자기계고등학교","tel":"051-256-4836","foundation":"사립"},{"id":21541,"name":"경남여자고등학교","type":"고등학교","website":"http://gyeongnamgirls.hs.kr","lat":"35.1321649","lng":"129.0443271","prov":"부산","address":"부산광역시 동구 수정5동 558 경남여자고등학교","tel":"051-600-0855","foundation":"공립"},{"id":21542,"name":"금성고등학교","type":"고등학교","website":"http://bgs.hs.kr","lat":"35.1348466","lng":"129.0516187","prov":"부산","address":"부산광역시 동구 좌천1동   747 747-2","tel":"051-632-113","foundation":"사립"},{"id":21543,"name":"데레사여자고등학교","type":"고등학교","website":"www.trs.hs.kr","lat":"35.1370003","lng":"129.0552061","prov":"부산","address":"부산광역시 동구 범일1동 1375번지","tel":"051-640-1112","foundation":"사립"},{"id":21544,"name":"부산고등학교","type":"고등학교","website":"http://busan.hs.kr","lat":"35.1214244","lng":"129.0365949","prov":"부산","address":"부산 동구 초량동 806-177","tel":"051-600-0700","foundation":"공립"},{"id":21545,"name":"부산컴퓨터과학고등학교","type":"고등학교","website":"www.pcs.hs.kr","lat":"35.1222793","lng":"129.0352958","prov":"부산","address":"부산광역시 동구 초량6동 795~851 80번길 5","tel":"051-460-0594","foundation":"사립"},{"id":21546,"name":"광명고등학교","type":"고등학교","website":"http://www.km.hs.kr","lat":"35.0827024","lng":"129.0644566","prov":"부산","address":"부산광역시 영도구 동삼동 226-118","tel":"051-405-6302","foundation":"사립"},{"id":21547,"name":"부산남고등학교","type":"고등학교","website":"http://www.busan-nam.hs.kr","lat":"35.0702668","lng":"129.0657862","prov":"부산","address":"부산광역시 영도구 동삼동 592","tel":"051-403-700","foundation":"공립"},{"id":21548,"name":"부산보건고등학교","type":"고등학교","website":"http://busanhc.com","lat":"35.0815728","lng":"129.0416413","prov":"부산","address":"부산광역시 영도구 영선동4가 200번지","tel":"051-418-9253","foundation":"사립"},{"id":21549,"name":"부산영상예술고등학교","type":"고등학교","website":"http://visual.hs.kr/","lat":"35.0847444","lng":"129.0453574","prov":"부산","address":"부산 영도구 신선동3가 71-","tel":"051-419-0324","foundation":"공립"},{"id":21550,"name":"부산체육고등학교","type":"고등학교","website":"http://www.busport.hs.kr","lat":"35.0712412","lng":"129.0657868","prov":"부산","address":"부산광역시 영도구 동삼동 525번지","tel":"051-400-3004","foundation":"공립"},{"id":21551,"name":"부산해사고등학교","type":"고등학교","website":"http://www.maritime.hs.kr","lat":"35.0760308","lng":"129.0750332","prov":"부산","address":"부산광역시 영도구 동삼동 1125-2","tel":"051-410-2000","foundation":"국립"},{"id":21552,"name":"영도여자고등학교","type":"고등학교","website":"http://www.yeongdo.hs.kr","lat":"35.0721888","lng":"129.0662791","prov":"부산","address":"부산광역시 영도구 동삼1동 중리북로 21번길 42(동삼1동)","tel":"051-403-8814","foundation":"공립"},{"id":21553,"name":"가야고등학교","type":"고등학교","website":"http://www.gaya.hs.kr","lat":"35.1539731","lng":"129.0397012","prov":"부산","address":"부산광역시 부산진구 가야3동 엄광로 152","tel":"051-893-188","foundation":"사립"},{"id":21554,"name":"개금고등학교","type":"고등학교","website":"http://kaekeum.hs.kr/","lat":"35.1613835","lng":"129.0245777","prov":"부산","address":"부산광역시 부산진구 개금3동 8-1 개금고등학교","tel":"070-8277-5793","foundation":"공립"},{"id":21555,"name":"개성고등학교","type":"고등학교","website":"www.gaesung.hs.kr","lat":"35.1697194","lng":"129.0302269","prov":"부산","address":"부산광역시 부산진구 당감동 642","tel":"051-897-6404","foundation":"공립"},{"id":21556,"name":"경남공업고등학교","type":"고등학교","website":"www.knt.hs.kr","lat":"35.1530477","lng":"129.0635644","prov":"부산","address":"부산광역시 부산진구 전포1동 696-1번지","tel":"051-607-7477","foundation":"공립"},{"id":21557,"name":"경원고등학교","type":"고등학교","website":"www.kyungwon.hs.kr","lat":"35.1676661","lng":"129.0282025","prov":"부산","address":"부산광역시 부산진구 당감3동 백양관문로 40","tel":"051-898-2215","foundation":"사립"},{"id":21558,"name":"동의공업고등학교","type":"고등학교","website":"http://www.dongeui-tech.hs.kr","lat":"35.1679944","lng":"129.0703841","prov":"부산","address":"부산 부산진구 양지로 50 동의공업고등학교(전포동)","tel":"051-811-758","foundation":"사립"},{"id":21559,"name":"부산국제고등학교","type":"고등학교","website":"http://www.gukje.hs.kr","lat":"35.1676383","lng":"129.0233412","prov":"부산","address":"부산광역시 부산진구 당감동 897번지 부산국제고등학교","tel":"051-892-3773","foundation":"공립"},{"id":21560,"name":"부산동고등학교","type":"고등학교","website":"http://www.donggo.hs.kr","lat":"35.153059","lng":"129.070938","prov":"부산","address":"부산광역시 부산진구 동성로 30번길 36 (전포동)","tel":"051-802-0624","foundation":"사립"},{"id":21561,"name":"부산동성고등학교","type":"고등학교","website":"http://psdsdongsung.hr.kr/","lat":"35.1520849","lng":"129.0695212","prov":"부산","address":"부산광역시 부산진구 전포3동   358-8번지 동성로 16 동성고등학교(358-8)","tel":"051-802-463","foundation":"사립"},{"id":21562,"name":"부산마케팅고등학교","type":"고등학교","website":"http://www.marketing.hs.kr","lat":"35.1519365","lng":"129.0706369","prov":"부산","address":"부산광역시 부산진구 봉수로13(전포3동471) 부산마케팅고등학교","tel":"051-803-1264","foundation":"사립"},{"id":21563,"name":"부산정보고등학교","type":"고등학교","website":"http://psinfo.hs.kr","lat":"35.1774713","lng":"129.0644760","prov":"부산","address":"부산광역시 부산진구 양정1동 455-7 부산정보고등학교","tel":"051-853-087","foundation":"사립"},{"id":21564,"name":"부산진고등학교","type":"고등학교","website":"www.pusanjin.hs.kr","lat":"35.1799768","lng":"129.0537389","prov":"부산","address":"부산광역시 부산진구 초읍동 541-","tel":"051-810-0505","foundation":"공립"},{"id":21565,"name":"부산진여자고등학교","type":"고등학교","website":"http://www.busanjin.hs.kr","lat":"35.1704615","lng":"129.0781355","prov":"부산","address":"부산광역시 부산진구 양정로 48(양정2동) 부산진여자고등학교","tel":"051-1599-5789","foundation":"사립"},{"id":21566,"name":"부산진여자상업고등학교","type":"고등학교","website":"http://jin.hs.kr/","lat":"35.1699656","lng":"129.0724810","prov":"부산","address":"부산광역시 부산진구 양정1동  74-159 74-159","tel":"051-850-3515","foundation":"공립"},{"id":21567,"name":"성모여자고등학교","type":"고등학교","website":"http://sung-mo.hs.kr","lat":"35.1672207","lng":"129.0709751","prov":"부산","address":"부산광역시 부산진구 양정1동 산25번지","tel":"051-850-2212","foundation":"사립"},{"id":21568,"name":"세정상업고등학교","type":"고등학교","website":"www.dongho.hs.kr","lat":"35.1700873","lng":"129.0788813","prov":"부산","address":"부산 부산진구 양정2동 16-185","tel":"051-860-1500","foundation":"사립"},{"id":21569,"name":"양정고등학교","type":"고등학교","website":"http://www.yangjung.hs.kr/","lat":"35.1699109","lng":"129.0750995","prov":"부산","address":"부산광역시 부산진구 양정동 33-3","tel":"051-850-1500","foundation":"사립"},{"id":21570,"name":"한국과학영재학교","type":"고등학교","website":"http://www.ksa.hs.kr","lat":"35.1644444","lng":"129.0356738","prov":"부산","address":"부산광역시 부산진구 당감3동 105-47번지","tel":"051-606-2117","foundation":"국립"},{"id":21571,"name":"금정고등학교","type":"고등학교","website":"www.keumjeong.hs.kr","lat":"35.2068886","lng":"129.1072630","prov":"부산","address":"부산광역시 동래구 명장동 432","tel":"051-528-5792","foundation":"공립"},{"id":21572,"name":"대명여자고등학교","type":"고등학교","website":"http://www.daemyung.hs.kr","lat":"35.2120873","lng":"129.0960177","prov":"부산","address":"부산광역시 동래구 명장동 533","tel":"051-526-345","foundation":"사립"},{"id":21573,"name":"동래고등학교","type":"고등학교","website":"http://dongnae.hs.kr/","lat":"35.2012745","lng":"129.0917228","prov":"부산","address":"부산광역시 동래구 칠산동 360번지 동래고등학교","tel":"051-552-0650","foundation":"공립"},{"id":21574,"name":"동래원예고등학교","type":"고등학교","website":"http://wonyea.hs.kr","lat":"35.2149956","lng":"129.0744459","prov":"부산","address":"부산광역시 동래구 온천1동   386 동래원예고등학교","tel":"051-550-3773","foundation":"공립"},{"id":21575,"name":"동인고등학교","type":"고등학교","website":"www.dongin.hs.kr","lat":"35.1980639","lng":"129.0506309","prov":"부산","address":"부산광역시 동래구 사직2동 981-90 981-90번지","tel":"051-501-7603","foundation":"사립"},{"id":21576,"name":"부산전자공업고등학교","type":"고등학교","website":"http://kumgang.hs.kr","lat":"35.2149956","lng":"129.0744459","prov":"부산","address":"부산광역시 동래구 온천1동   386 (차밭골길 51)","tel":"051-606-0200","foundation":"공립"},{"id":21577,"name":"부산중앙여자고등학교","type":"고등학교","website":"http://www.busan-jag.hs.kr","lat":"35.2077176","lng":"129.0794458","prov":"부산","address":"부산광역시 동래구 명륜동 652 부산중앙여자고등학교","tel":"051-555-0370","foundation":"공립"},{"id":21578,"name":"사직고등학교","type":"고등학교","website":"http://www.sajik.hs.kr/","lat":"35.2035219","lng":"129.0559011","prov":"부산","address":"부산광역시 동래구 사직2동 632-8번지","tel":"051-590-0303","foundation":"공립"},{"id":21579,"name":"사직여자고등학교","type":"고등학교","website":"http://www.sajik-g.hs.kr/","lat":"35.1967625","lng":"129.0517529","prov":"부산","address":"부산광역시 동래구 사직2동 981-1번지","tel":"051-792-3800","foundation":"사립"},{"id":21580,"name":"용인고등학교","type":"고등학교","website":"http://psyongin.hs.kr","lat":"35.2145385","lng":"129.0949754","prov":"부산","address":"부산광역시 동래구 명장동 산 103-","tel":"051-525-0080","foundation":"사립"},{"id":21581,"name":"충렬고등학교","type":"고등학교","website":"http://www.pscr.hs.kr","lat":"35.2073963","lng":"129.1018461","prov":"부산","address":"부산광역시 동래구 명장동 160번길 26(명장1동)","tel":"051-531-470","foundation":"공립"},{"id":21582,"name":"학산여자고등학교","type":"고등학교","website":"http://www.hsgh.hs.kr","lat":"35.2064962","lng":"129.0964166","prov":"부산","address":"부산광역시 동래구 명장2동 학산여자고등학교","tel":"051-525-1114","foundation":"사립"},{"id":21583,"name":"혜화여자고등학교","type":"고등학교","website":"www.hye-hwa.hs.kr","lat":"35.2032896","lng":"129.1112785","prov":"부산","address":"부산광역시 동래구 명장동  산14-2 혜화여자고등학교","tel":"051-528-1740","foundation":"사립"},{"id":21584,"name":"대양전자통신고등학교","type":"고등학교","website":"www.daeyang.hs.kr","lat":"35.1348357","lng":"129.0721278","prov":"부산","address":"부산광역시 남구 지게골로 128-27(문현동) 대양전자통신고등학교","tel":"051-640-0512","foundation":"사립"},{"id":21585,"name":"대연고등학교","type":"고등학교","website":"http://www.daeyeon.hs.kr","lat":"35.1291166","lng":"129.1015016","prov":"부산","address":"부산광역시 남구 대연3동 670-4 대연고등학교","tel":"051-625-8114","foundation":"사립"},{"id":21586,"name":"대연정보고등학교","type":"고등학교","website":"http://dyih.hs.kr/","lat":"35.1380037","lng":"129.0841692","prov":"부산","address":"부산광역시 남구 대연6동 진남로 82-19번지","tel":"051-632-425","foundation":"사립"},{"id":21587,"name":"동천고등학교","type":"고등학교","website":"http://dongcheon.hs.kr","lat":"35.1451708","lng":"129.0868937","prov":"부산","address":"부산광역시 남구 대연5동 1564 (대연5동) 동천고등학교","tel":"051-628-1302","foundation":"사립"},{"id":21588,"name":"문현여자고등학교","type":"고등학교","website":"http://www.munhyun.hs.kr","lat":"35.1448167","lng":"129.0742393","prov":"부산","address":"부산 남구 문현동 40-1번지","tel":"051-630-1600","foundation":"공립"},{"id":21589,"name":"배정고등학교","type":"고등학교","website":"http://baejeong.hs.kr/","lat":"35.1344543","lng":"129.0671684","prov":"부산","address":"부산광역시 남구 문현4동 430 배정고등학교","tel":"051-632-4743","foundation":"사립"},{"id":21590,"name":"부산경영고등학교","type":"고등학교","website":"http://busan-is.hs.kr","lat":"35.1337831","lng":"129.0742826","prov":"부산","address":"부산광역시 남구 문현4동 1098-5번지 부산경영고등학교","tel":"051-635-2293","foundation":"사립"},{"id":21591,"name":"부산공업고등학교","type":"고등학교","website":"http://pusan-th.hs.kr","lat":"35.1303214","lng":"129.0876850","prov":"부산","address":"부산광역시 남구 대연4동 918-1 번지","tel":"051-607-3800","foundation":"공립"},{"id":21592,"name":"부산디자인고등학교","type":"고등학교","website":"http://www.design.hs.kr","lat":"35.1202290","lng":"129.1170004","prov":"부산","address":"부산광역시 남구 용호3동 부산디자인고등학교","tel":"051-620-2700","foundation":"공립"},{"id":21593,"name":"부산중앙고등학교","type":"고등학교","website":"http://www.bjungang.hs.kr","lat":"35.1380037","lng":"129.0841692","prov":"부산","address":"부산광역시 남구 대연6동 1778-6 부산중앙고등학교","tel":"051-643-8272","foundation":"공립"},{"id":21594,"name":"부산항만물류고등학교","type":"고등학교","website":"http://bpl.hs.kr/","lat":"35.1211452","lng":"129.0996131","prov":"부산","address":"부산광역시 남구 용당동 500 부산항만물류고등학교","tel":"051-610-2527","foundation":"사립"},{"id":21595,"name":"부성고등학교","type":"고등학교","website":"http://buseong.hs.kr","lat":"35.1466417","lng":"129.0713651","prov":"부산","address":"부산광역시 남구 문현1동 부성고등학교","tel":"051-637-5983","foundation":"사립"},{"id":21596,"name":"분포고등학교","type":"고등학교","website":"http://www.bunpo.hs.kr","lat":"35.1141195","lng":"129.1152511","prov":"부산","address":"부산광역시 남구 용호1동 (용호1동 172-66)","tel":"051-610-331","foundation":"공립"},{"id":21597,"name":"성지고등학교","type":"고등학교","website":"http://www.bssj.hs.kr","lat":"35.127859","lng":"129.080822","prov":"부산","address":"부산광역시 남구 우암1동 산38-1 유엔로 39(우암동)","tel":"051-607-7575","foundation":"사립"},{"id":21598,"name":"예문여자고등학교","type":"고등학교","website":"http://www.yeamoon.hs.kr","lat":"35.1175412","lng":"129.1072330","prov":"부산","address":"부산광역시 남구 동명로 92번길 76(용호동) 예문여자고등학교","tel":"051-627-2115","foundation":"사립"},{"id":21599,"name":"경혜여자고등학교","type":"고등학교","website":"http://kyonghye.hs.kr/","lat":"35.2041841","lng":"129.0079913","prov":"부산","address":"부산광역시 북구 시랑로21번길 138(구포동) 경혜여자고등학교","tel":"051-336-1042","foundation":"사립"},{"id":21600,"name":"금곡고등학교","type":"고등학교","website":"http://www.geumgok.hs.kr/","lat":"35.2446846","lng":"129.0119512","prov":"부산","address":"부산광역시 북구 금곡동 1892 금곡고등학교","tel":"051-330-2103","foundation":"공립"},{"id":21601,"name":"금명여자고등학교","type":"고등학교","website":"http://www.gmg.hs.kr","lat":"35.2417690","lng":"129.0166182","prov":"부산","address":"부산광역시 북구 화명동 (양달로 101)","tel":"051-330-8672","foundation":"공립"},{"id":21602,"name":"낙동고등학교","type":"고등학교","website":"http://www.nakdong.hs.kr","lat":"35.2123552","lng":"129.0079521","prov":"부산","address":"부산광역시 북구 덕천2동 297-1번지 낙동고등학교","tel":"051-337-0334","foundation":"공립"},{"id":21603,"name":"만덕고등학교","type":"고등학교","website":"http://www.mandeokgo.hs.kr/","lat":"35.2015452","lng":"129.0346040","prov":"부산","address":"부산광역시 북구 만덕동 948","tel":"051-330-3500","foundation":"공립"},{"id":21604,"name":"부산백양고등학교","type":"고등학교","website":"http://www.baekyang.hs.kr","lat":"35.1968707","lng":"128.9987366","prov":"부산","address":"부산광역시 북구 구포2동 888 888","tel":"051-600-6505","foundation":"공립"},{"id":21605,"name":"삼정고등학교","type":"고등학교","website":"www.sj.hs.kr","lat":"35.1948853","lng":"129.0087865","prov":"부산","address":"부산광역시 북구 구포3동 (구포동)","tel":"051-361-9802","foundation":"사립"},{"id":21606,"name":"성도고등학교","type":"고등학교","website":"http://www.sungdo.hs.kr","lat":"35.1981939","lng":"129.0142463","prov":"부산","address":"부산광역시 북구 구포3동   48-56번지 성도고등학교","tel":"051-332-060","foundation":"사립"},{"id":21607,"name":"화명고등학교","type":"고등학교","website":"http://www.hwamyeong.hs.kr/","lat":"35.2276868","lng":"129.0151177","prov":"부산","address":"부산광역시 북구 화명동 169(화명동)","tel":"051-363-8853","foundation":"공립"},{"id":21608,"name":"반여고등학교","type":"고등학교","website":"http://banyeo.hs.kr","lat":"35.2005415","lng":"129.1236973","prov":"부산","address":"부산 해운대구 반여동 반여로 136","tel":"051-520-1705","foundation":"공립"},{"id":21609,"name":"부산국제외국어고등학교","type":"고등학교","website":"http://busan-ifl.hs.kr","lat":"35.1659322","lng":"129.1437881","prov":"부산","address":"부산광역시 해운대구 해운대로 469번길 50-","tel":"051-731-3588","foundation":"사립"},{"id":21610,"name":"부산기계공업고등학교","type":"고등학교","website":"http://www.bmt.hs.kr","lat":"35.1628078","lng":"129.1580784","prov":"부산","address":"부산 해운대구 해운대로 569 우1동 114-","tel":"051-741-511","foundation":"국립"},{"id":21611,"name":"부산문화여자고등학교","type":"고등학교","website":"http://bs-moonhwa.hs.kr/","lat":"35.1648405","lng":"129.1432361","prov":"부산","address":"부산광역시 해운대구 우동 1025-127","tel":"051-746-2952","foundation":"사립"},{"id":21612,"name":"부흥고등학교","type":"고등학교","website":"http://www.buhungko.hs.kr","lat":"35.1738073","lng":"129.1801778","prov":"부산","address":"부산 해운대구 좌동 1306","tel":"051-709-6105","foundation":"공립"},{"id":21613,"name":"성심보건고등학교","type":"고등학교","website":"http://sungsim-ms.hs.kr","lat":"35.2230207","lng":"129.1535739","prov":"부산","address":"부산광역시 해운대구 반송3동 248-1번지","tel":"051-543-9588","foundation":"사립"},{"id":21614,"name":"센텀고등학교","type":"고등학교","website":"http://www.centum.hs.kr","lat":"35.1769671","lng":"129.1274161","prov":"부산","address":"부산광역시 해운대구 재송동 1222번지","tel":"051-730-8880","foundation":"공립"},{"id":21615,"name":"신도고등학교","type":"고등학교","website":"http://shindo.hs.kr","lat":"35.1719302","lng":"129.1675737","prov":"부산","address":"부산광역시 해운대구 좌3동 1344번지","tel":"051-709-8400","foundation":"공립"},{"id":21616,"name":"양운고등학교","type":"고등학교","website":"http://yangwoon.hs.kr","lat":"35.1780311","lng":"129.1706175","prov":"부산","address":"부산 해운대구 좌동 1395","tel":"051-702-069","foundation":"공립"},{"id":21617,"name":"해강고등학교","type":"고등학교","website":"http://www.haegang.hs.kr","lat":"35.1645019","lng":"129.1370529","prov":"부산","address":"부산광역시 해운대구 우동 1417-1 해강고등학교","tel":"051-749-8700","foundation":"공립"},{"id":21618,"name":"해운대고등학교","type":"고등학교","website":"http://www.haeundae.hs.kr","lat":"35.1715289","lng":"129.1624393","prov":"부산","address":"부산광역시 해운대구 우1동   278 해운대고등학교","tel":"051-742-0312","foundation":"사립"},{"id":21619,"name":"해운대공업고등학교","type":"고등학교","website":"http://www.hudt.hs.kr","lat":"35.1672795","lng":"129.1451632","prov":"부산","address":"부산광역시 해운대구 우2동   934-2 해운대공업고등학교","tel":"051-792-7772","foundation":"공립"},{"id":21620,"name":"해운대관광고등학교","type":"고등학교","website":"http://www.h-tour.hs.kr","lat":"35.1691303","lng":"129.1571051","prov":"부산","address":"부산 해운대구 우동2로 60번길 38 해운대관광고등학교(우1동)","tel":"051-742-0043","foundation":"사립"},{"id":21621,"name":"해운대여자고등학교","type":"고등학교","website":"www.hwdghs.hs.kr","lat":"35.1628081","lng":"129.1580788","prov":"부산","address":"부산광역시 해운대구 우1동 (우1동)","tel":"051-741-6813","foundation":"사립"},{"id":21622,"name":"건국고등학교","type":"고등학교","website":"www.keonkuk.hs.kr","lat":"35.1171658","lng":"128.9692092","prov":"부산","address":"부산광역시 사하구 하단동 산 4","tel":"051-202-9593","foundation":"사립"},{"id":21623,"name":"다대고등학교","type":"고등학교","website":"www.dadae.hs.kr","lat":"35.0530086","lng":"128.9695018","prov":"부산","address":"부산광역시 사하구 다대1동 1551번지","tel":"051-265-9804","foundation":"공립"},{"id":21624,"name":"대광발명과학고등학교","type":"고등학교","website":"http://www.daegwang.hs.kr","lat":"35.1013657","lng":"128.9726241","prov":"부산","address":"부산광역시 사하구 당리동 286-1번지","tel":"051-292-3225","foundation":"사립"},{"id":21625,"name":"대동고등학교","type":"고등학교","website":"http://www.ddhs.hs.kr","lat":"35.0872350","lng":"128.9833964","prov":"부산","address":"부산광역시 사하구 신평동 569-72","tel":"051-292-1697","foundation":"사립"},{"id":21626,"name":"동아고등학교","type":"고등학교","website":"http://dong-a.hs.kr","lat":"35.0944411","lng":"128.9876834","prov":"부산","address":"부산광역시 사하구 괴정동 619-4","tel":"051-290-5000","foundation":"사립"},{"id":21627,"name":"동아공업고등학교","type":"고등학교","website":"donga-tec.hs.kr","lat":"35.0930921","lng":"128.9883011","prov":"부산","address":"부산 사하구 괴정동 619-46","tel":"051-200-3800","foundation":"사립"},{"id":21628,"name":"부산여자고등학교","type":"고등학교","website":"http://busan-gh.hs.kr","lat":"35.1119772","lng":"128.9672091","prov":"부산","address":"부산 사하구 낙동대로 520번길 36 부산여자고등학교(하단2동)","tel":"051-200-0346","foundation":"공립"},{"id":21629,"name":"부산일과학고등학교","type":"고등학교","website":"http://bsis.hs.kr","lat":"35.1170773","lng":"128.9889878","prov":"부산","address":"부산광역시 사하구 당리동 2-","tel":"051-290-6810","foundation":"공립"},{"id":21630,"name":"부산자동차고등학교","type":"고등학교","website":"www.automotive.hs.kr","lat":"35.0757036","lng":"128.9640159","prov":"부산","address":"부산광역시 사하구 장림1동 877-1 부산자동차고등학교","tel":"051-260-0116","foundation":"공립"},{"id":21631,"name":"부일외국어고등학교","type":"고등학교","website":"http://www.puilschool.hs.kr","lat":"35.0908705","lng":"129.0002402","prov":"부산","address":"부산광역시 사하구 감천동 634-6","tel":"051-208-7405","foundation":"사립"},{"id":21632,"name":"부일전자디자인고등학교","type":"고등학교","website":"http://www.buil.hs.kr","lat":"35.0914525","lng":"129.0019842","prov":"부산","address":"부산광역시 사하구 감천1동 634-61 부일전자디자인고등학교","tel":"051-208-7403","foundation":"사립"},{"id":21633,"name":"삼성여자고등학교","type":"고등학교","website":"http://www.samsung-g.hs.kr","lat":"35.0937248","lng":"128.9978908","prov":"부산","address":"부산광역시 사하구 감천1동 598 598","tel":"051-291-0808","foundation":"사립"},{"id":21634,"name":"성일여자고등학교","type":"고등학교","website":"http://sungil-g.hs.kr","lat":"35.0910819","lng":"128.9670990","prov":"부산","address":"부산광역시 사하구 신평동 다대로161(신평동60-1)","tel":"051-206-9092","foundation":"사립"},{"id":21635,"name":"해동고등학교","type":"고등학교","website":"http://www.haedong.hs.kr","lat":"35.1055335","lng":"129.0078719","prov":"부산","address":"부산광역시 사하구 괴정1동 613 (괴정1동)","tel":"051-204-4442","foundation":"사립"},{"id":21636,"name":"금정여자고등학교","type":"고등학교","website":"www.kjung.hs.kr","lat":"35.2203002","lng":"129.1004714","prov":"부산","address":"부산광역시 금정구 서1동 461-2 금정여자고등학교","tel":"051-529-7580","foundation":"공립"},{"id":21637,"name":"금정전자공업고등학교","type":"고등학교","website":"http://kumjong.hs.kr/","lat":"35.2212447","lng":"129.1081096","prov":"부산","address":"부산광역시 금정구 서3동   76번지 금정전자공업고등학교","tel":"051-540-0105","foundation":"사립"},{"id":21638,"name":"남산고등학교","type":"고등학교","website":"www.ns.hs.kr","lat":"35.2679610","lng":"129.0854993","prov":"부산","address":"부산광역시 금정구 남산동   982 남산고등학교","tel":"051-580-0503","foundation":"공립"},{"id":21639,"name":"내성고등학교","type":"고등학교","website":"http://www.naesung.hs.kr","lat":"35.2211367","lng":"129.0928694","prov":"부산","address":"부산 금정구 부곡4동 812-13번지","tel":"051-580-020","foundation":"공립"},{"id":21640,"name":"대진정보통신고등학교","type":"고등학교","website":"www.pdj.hs.kr","lat":"35.2411307","lng":"129.0813060","prov":"부산","address":"부산광역시 금정구 장전1동 657-13 대진정보통신고등학교","tel":"051-582-8100","foundation":"사립"},{"id":21641,"name":"동래여자고등학교","type":"고등학교","website":"www.dongnae-gh.hs.kr","lat":"35.2793976","lng":"129.1079243","prov":"부산","address":"부산광역시 금정구 체육공원로 20 동래여자고등학교","tel":"051-514-1227","foundation":"사립"},{"id":21642,"name":"부산대학교사범대학부설고등학교","type":"고등학교","website":"http://pusan-ah.hs.kr","lat":"35.2326878","lng":"129.0953610","prov":"부산","address":"부산광역시 금정구 부곡2동   산42-7 부산대학교사범대학부설고등학교","tel":"051-580-7555","foundation":"국립"},{"id":21643,"name":"부산예술고등학교","type":"고등학교","website":"http://pusanarts.hs.kr","lat":"35.2442122","lng":"129.0955170","prov":"부산","address":"부산광역시 금정구 부곡3동 산 7-","tel":"051-514-1230","foundation":"사립"},{"id":21644,"name":"부산정보관광고등학교","type":"고등학교","website":"http://www.pusan-ith.hs.kr/","lat":"35.2235603","lng":"129.0921890","prov":"부산","address":"부산광역시 금정구 부곡1동 323-7번지","tel":"051-518-7923","foundation":"사립"},{"id":21645,"name":"브니엘고등학교","type":"고등학교","website":"http://www.peniel.hs.kr","lat":"35.2588504","lng":"129.1037560","prov":"부산","address":"부산광역시 금정구 구서동 산 57-","tel":"051-582-6616","foundation":"사립"},{"id":21646,"name":"브니엘여자고등학교","type":"고등학교","website":"http://ipeniel.hs.kr/","lat":"35.2551537","lng":"129.1026916","prov":"부산","address":"부산광역시 금정구 구서동 57-","tel":"051-582-918","foundation":"사립"},{"id":21647,"name":"브니엘예술고등학교","type":"고등학교","website":"http://penielart.or.kr","lat":"35.254786","lng":"129.103449","prov":"부산","address":"부산광역시 금정구 구서동 산57-1 154 (구서1동)","tel":"051-582-9178","foundation":"사립"},{"id":21648,"name":"지산고등학교","type":"고등학교","website":"www.jisan.hs.kr","lat":"35.2447415","lng":"129.0990797","prov":"부산","address":"부산광역시 금정구 부곡3동 8-1","tel":"051-580-2600","foundation":"사립"},{"id":21649,"name":"경일고등학교","type":"고등학교","website":"http://www.ki.hs.kr","lat":"35.1121430","lng":"128.9217133","prov":"부산","address":"부산광역시 강서구 명지동   299번지 경일고등학교","tel":"051-271-237","foundation":"사립"},{"id":21650,"name":"덕문고등학교","type":"고등학교","website":"www.duckmun.hs.kr","lat":"35.0517710","lng":"128.8301011","prov":"부산","address":"부산광역시 강서구 성북동 508번지","tel":"051-972-2702","foundation":"공립"},{"id":21651,"name":"명호고등학교","type":"고등학교","website":"http://myeongho.hs.kr/","lat":"35.0806506","lng":"128.9001196","prov":"부산","address":"부산광역시 강서구 명지동 3236-3번지","tel":"051-220-1342","foundation":"공립"},{"id":21652,"name":"부산강서고등학교","type":"고등학교","website":"http://www.pusangangseo.hs.kr","lat":"35.2161874","lng":"128.9828992","prov":"부산","address":"부산광역시 강서구 대저1동   421-3 부산강서고등학교","tel":"051-974-9807","foundation":"공립"},{"id":21653,"name":"부산대저고등학교","type":"고등학교","website":"http://daejeo.hs.kr","lat":"35.177895","lng":"128.956242","prov":"부산","address":"부산광역시 강서구 대저2동 공항로 811번가길 46(대저 2동)","tel":"051-973-770","foundation":"사립"},{"id":21654,"name":"부산산업과학고등학교","type":"고등학교","website":"www.pusan-ish.hs.kr","lat":"35.1887725","lng":"128.9034629","prov":"부산","address":"부산광역시 강서구 봉림동 15 부산산업과학고등학교","tel":"051-971-2152","foundation":"공립"},{"id":21655,"name":"계성여자상업고등학교","type":"고등학교","website":"http://gyeseong-gc.hs.kr","lat":"35.1837678","lng":"129.0682737","prov":"부산","address":"부산광역시 연제구 거제4동 해맞이로 109번길 47호 계성여자상업고등학교","tel":"051-503-4894","foundation":"사립"},{"id":21656,"name":"부산과학고등학교","type":"고등학교","website":"http://bss.hs.kr","lat":"35.2629330","lng":"129.0826767","prov":"부산","address":"부산광역시 금정구 구서동 산 4-2","tel":"051-580-8515","foundation":"공립"},{"id":21657,"name":"부산외국어고등학교","type":"고등학교","website":"http://www.pfl.hs.kr","lat":"35.1836662","lng":"129.0950560","prov":"부산","address":"부산광역시 연제구 연산8동 144(연산8동)","tel":"051-867-5034","foundation":"사립"},{"id":21658,"name":"연제고등학교","type":"고등학교","website":"http://yeonje.hs.kr/","lat":"35.1768988","lng":"129.0915766","prov":"부산","address":"부산광역시 연제구 연산6동 2143번지","tel":"051-864-4807","foundation":"공립"},{"id":21659,"name":"이사벨고등학교","type":"고등학교","website":"http://www.isabelle.hs.kr","lat":"35.1944975","lng":"129.0783771","prov":"부산","address":"부산광역시 연제구 거제1동 75번지","tel":"051-590-2100","foundation":"사립"},{"id":21660,"name":"지구촌고등학교","type":"고등학교","website":"http://www.glovillhigh.hs.kr","lat":"35.1935546","lng":"129.0775817","prov":"부산","address":"부산광역시 연제구 거제1동 50 지구촌고등학교","tel":"051-590-2700","foundation":"사립"},{"id":21661,"name":"덕문여자고등학교","type":"고등학교","website":"http://www.dukmoon.hs.kr","lat":"35.1669177","lng":"129.1041948","prov":"부산","address":"부산광역시 수영구 광안3동  산 8-8번지 덕문여자고등학교","tel":"051-756-1802","foundation":"사립"},{"id":21662,"name":"부산남일고등학교","type":"고등학교","website":"http://bsnamil.hs.kr","lat":"35.1783121","lng":"129.1013465","prov":"부산","address":"부산광역시 수영구 망미1동 920-10번지","tel":"051-750-0158","foundation":"공립"},{"id":21663,"name":"부산동여자고등학교","type":"고등학교","website":"http://bdong-g.hs.kr/","lat":"35.1454523","lng":"129.1045097","prov":"부산","address":"부산광역시 수영구 남천1동 64~146 부산동여자고등학교","tel":"051-610-5700","foundation":"공립"},{"id":21664,"name":"부산여자상업고등학교","type":"고등학교","website":"http://psgch.hs.kr","lat":"35.1698625","lng":"129.1025287","prov":"부산","address":"부산광역시 수영구 망미1동   979-15 부산여자상업고등학교(망미1동)","tel":"051-797-6710","foundation":"사립"},{"id":21665,"name":"구덕고등학교","type":"고등학교","website":"http://www.gudeok.hs.kr","lat":"35.1381945","lng":"128.9915058","prov":"부산","address":"부산광역시 사상구 학장동   181-13 180-9","tel":"051-320-9205","foundation":"공립"},{"id":21666,"name":"대덕여자고등학교","type":"고등학교","website":"http://daeduk.hs.kr","lat":"35.1803306","lng":"128.9896773","prov":"부산","address":"부산광역시 사상구 백양대로 804번길 42-55(덕포2동)","tel":"051-309-8810","foundation":"사립"},{"id":21667,"name":"부산에너지과학고등학교","type":"고등학교","website":"http://www.energy.hs.kr","lat":"35.1728080","lng":"128.9923825","prov":"부산","address":"부산광역시 사상구 덕포2동 45-6 768번길 115(덕포동)","tel":"051-309-316","foundation":"공립"},{"id":21668,"name":"사상고등학교","type":"고등학교","website":"http://www.sasang.hs.kr","lat":"35.1687132","lng":"128.9858451","prov":"부산","address":"부산광역시 사상구 덕포1동 150-1(강선로 24)","tel":"051-366-9783","foundation":"공립"},{"id":21669,"name":"주례여자고등학교","type":"고등학교","website":"http://jurye.hs.kr","lat":"35.1500846","lng":"129.0104535","prov":"부산","address":"부산광역시 사상구 주례2동 366번길 146 (주례2동 84-176번지 주례여자고등학교)","tel":"051-310-3507","foundation":"공립"},{"id":21670,"name":"기장고등학교","type":"고등학교","website":"http://www.Gijang.hs.kr","lat":"35.2399704","lng":"129.2092065","prov":"부산","address":"부산 기장군 기장읍 대라리 390","tel":"051-720-111","foundation":"공립"},{"id":21671,"name":"부산장안고등학교","type":"고등학교","website":"http://jang-an.hs.kr","lat":"35.3187633","lng":"129.2365949","prov":"부산","address":"부산광역시 기장군 장안읍 좌천리 425 부산장안고등학교","tel":"051-720-1774","foundation":"공립"},{"id":21672,"name":"시온식품과학고등학교","type":"고등학교","website":"http://","lat":"35.2387394","lng":"129.2158170","prov":"부산","address":"부산광역시 기장군 기장읍 860-3 시온식품과학고등학교","tel":"051-722-4144","foundation":"사립"},{"id":21673,"name":"신정고등학교","type":"고등학교","website":"http://shinjeong.hs.kr","lat":"35.3280797","lng":"129.1667121","prov":"부산","address":"부산 기장군 정관면 용수리 1357","tel":"051-745-3473","foundation":"공립"},{"id":21674,"name":"장안제일고등학교","type":"고등학교","website":"www.janganjeil.hs.kr","lat":"35.3148194","lng":"129.2402891","prov":"부산","address":"부산광역시 기장군 장안읍 좌천리 323 장안제일고등학교","tel":"051-727-8394","foundation":"사립"},{"id":21675,"name":"경북공업고등학교","type":"고등학교","website":"http://www.gyeongbuk.hs.kr","lat":"35.8604720","lng":"128.5826517","prov":"대구","address":"대구광역시 중구 남산로20 (남산동 2380-5번지)","tel":"053-255-8300","foundation":"사립"},{"id":21676,"name":"경북대학교사범대학부설고등학교","type":"고등학교","website":"http://www.knu.hs.kr","lat":"35.8607979","lng":"128.6018336","prov":"대구","address":"대구광역시 중구 달구벌대로 2178 (대봉1동 60번지)","tel":"053-424-7403","foundation":"국립"},{"id":21677,"name":"경북여자고등학교","type":"고등학교","website":"http://www.gbg.hs.kr/","lat":"35.8658874","lng":"128.5935768","prov":"대구","address":"대구광역시 중구 중앙대로 288 (남산동 714-2번지)","tel":"053-430-308","foundation":"공립"},{"id":21678,"name":"계성고등학교","type":"고등학교","website":"http://www.keisung.hs.kr","lat":"35.8719878","lng":"128.5819844","prov":"대구","address":"대구광역시 중구 달성로 35 (대신동 277번지)","tel":"053-250-2400","foundation":"사립"},{"id":21679,"name":"신명고등학교","type":"고등학교","website":"http://www.s-m.hs.kr","lat":"35.8690422","lng":"128.5859122","prov":"대구","address":"대구광역시 중구 국채보상로102길 48 (동산동 206번지)","tel":"053-254-180","foundation":"사립"},{"id":21680,"name":"강동고등학교","type":"고등학교","website":"http://www.gangdong.hs.kr","lat":"35.8667161","lng":"128.7263773","prov":"대구","address":"대구광역시 동구 금강로 65 (신서동 560번지)","tel":"053-662-1505","foundation":"공립"},{"id":21681,"name":"달구벌고등학교","type":"고등학교","website":"http://www.dalgus.net","lat":"35.9919663","lng":"128.6127118","prov":"대구","address":"대구광역시 동구 팔공산로2길 16 (덕곡동 75-5번지)","tel":"053-981-1318","foundation":"사립"},{"id":21682,"name":"대구공업고등학교","type":"고등학교","website":"http://www.tktech.hs.kr","lat":"35.8816914","lng":"128.6130027","prov":"대구","address":"대구광역시 동구 대현로 135 (신암동 811번지)","tel":"053-603-0200","foundation":"공립"},{"id":21683,"name":"대구관광고등학교","type":"고등학교","website":"http://www.dgit.hs.kr","lat":"35.8899150","lng":"128.6300376","prov":"대구","address":"대구광역시 동구 동북로71길 37 (신암동 80번지)","tel":"053-953-620","foundation":"사립"},{"id":21684,"name":"대구동부고등학교","type":"고등학교","website":"http://www.dgdongbu.hs.kr","lat":"35.8747366","lng":"128.7208513","prov":"대구","address":"대구광역시 동구 반야월북로 199 (각산동 199번지)","tel":"053-963-152","foundation":"사립"},{"id":21685,"name":"대구동부공업고등학교","type":"고등학교","website":"http://www.dongbutech.hs.kr","lat":"35.8816300","lng":"128.6449126","prov":"대구","address":"대구광역시 동구 효동로 48 (효목1동 212번지)","tel":"053-940-3512","foundation":"공립"},{"id":21686,"name":"대구일과학고등학교","type":"고등학교","website":"http://www.dg1s.hs.kr","lat":"35.8731529","lng":"128.7152963","prov":"대구","address":"대구광역시 동구 경안로 987 (각산동 69번지)","tel":"053-960-0100","foundation":"공립"},{"id":21687,"name":"영신고등학교","type":"고등학교","website":"http://www.dgys.hs.kr/","lat":"35.9205213","lng":"128.6479213","prov":"대구","address":"대구광역시 동구 팔공로 50길 32 (봉무동 524번지)","tel":"053-980-7078","foundation":"사립"},{"id":21688,"name":"정동고등학교","type":"고등학교","website":"http://www.jungdong.hs.kr","lat":"35.8759694","lng":"128.6926504","prov":"대구","address":"대구광역시 동구 용계로1길 49 (용계동 산38-4번지)","tel":"053-962-171","foundation":"사립"},{"id":21689,"name":"조일로봇고등학교","type":"고등학교","website":"http://www.choil.hs.kr","lat":"35.8820586","lng":"128.6948583","prov":"대구","address":"대구광역시 동구 신덕로 136-11 (신평동 50번지)","tel":"053-962-0637","foundation":"사립"},{"id":21690,"name":"청구고등학교","type":"고등학교","website":"http://www.cheonggu.hs.kr","lat":"35.8677421","lng":"128.6220532","prov":"대구","address":"대구광역시 동구 국채보상로 827 (신천3동 850-6번지)","tel":"053-752-3295","foundation":"사립"},{"id":21691,"name":"경덕여자고등학교","type":"고등학교","website":"http://www.kyungduk.hs.kr","lat":"35.8657136","lng":"128.5508110","prov":"대구","address":"대구광역시 서구 국채보상로34길 50 (중리동 100-1번지)","tel":"053-563-3478","foundation":"공립"},{"id":21692,"name":"달성고등학교","type":"고등학교","website":"http://www.dalseong.hs.kr","lat":"35.8607971","lng":"128.5560883","prov":"대구","address":"대구광역시 서구 달구벌대로 1725 (내당4동 467-1번지)","tel":"053-560-580","foundation":"공립"},{"id":21693,"name":"대구서부고등학교","type":"고등학교","website":"http://www.seobu.hs.kr","lat":"35.8740241","lng":"128.5594624","prov":"대구","address":"대구광역시 서구 국채보상로53길 32 (평리3동 1070-48번지)","tel":"053-550-2500","foundation":"공립"},{"id":21694,"name":"대구서부공업고등학교","type":"고등학교","website":"http://www.seoboo.or.kr","lat":"35.8594638","lng":"128.5472009","prov":"대구","address":"대구광역시 서구 당산로 228 (내당4동 456-1번지)","tel":"053-560-3307","foundation":"공립"},{"id":21695,"name":"대구제일고등학교","type":"고등학교","website":"http://www.dgjeil.hs.kr","lat":"35.8710195","lng":"128.5703918","prov":"대구","address":"대구광역시 서구 국채보상로 384 (비산4동 228번지)","tel":"053-571-1104","foundation":"사립"},{"id":21696,"name":"경북여자상업고등학교","type":"고등학교","website":"http://gbgc.kr","lat":"35.8555427","lng":"128.5889004","prov":"대구","address":"대구광역시 남구 명덕로 38길 36 (대명2동. 1804-2번지)","tel":"053-652-4608","foundation":"사립"},{"id":21697,"name":"경북예술고등학교","type":"고등학교","website":"http://www.gahs.or.kr","lat":"35.8543221","lng":"128.5868180","prov":"대구","address":"대구광역시 남구 중앙대로47길 30 (대명동 1804-1번지)","tel":"053-625-5604","foundation":"사립"},{"id":21698,"name":"경상공업고등학교","type":"고등학교","website":"http://www.kyeongsang-th.hs.kr","lat":"35.8467153","lng":"128.5771972","prov":"대구","address":"대구광역시 남구 대경길 151 (대명4동 3015-1번지)","tel":"053-659-3002","foundation":"사립"},{"id":21699,"name":"경일여자고등학교","type":"고등학교","website":"http://www.g-il.hs.kr","lat":"35.8374458","lng":"128.5985692","prov":"대구","address":"대구광역시 남구 효성로 37 (봉덕동 1322-1번지)","tel":"053-471-7782","foundation":"사립"},{"id":21700,"name":"대구고등학교","type":"고등학교","website":"http://www.daegu.hs.kr","lat":"35.8518269","lng":"128.5893908","prov":"대구","address":"대구광역시 남구 중앙대로 173 (대명5동 187번지)","tel":"053-722-1524","foundation":"공립"},{"id":21701,"name":"대구여자상업고등학교","type":"고등학교","website":"http://www.daegu-gch.hs.kr","lat":"35.8498722","lng":"128.5841687","prov":"대구","address":"대구광역시 남구 현충로40길 50 (대명동 1835-3번지)","tel":"053-659-5052","foundation":"사립"},{"id":21702,"name":"심인고등학교","type":"고등학교","website":"http://www.simin.hs.kr","lat":"35.8486673","lng":"128.5787791","prov":"대구","address":"대구광역시 남구 현충로39길 29 (대명3동 1745-9번지)","tel":"053-656-2472","foundation":"사립"},{"id":21703,"name":"협성고등학교","type":"고등학교","website":"http://www.hyupsung.hs.kr","lat":"35.8350755","lng":"128.5991786","prov":"대구","address":"대구광역시 남구 효성로 33 (봉덕3동 1322-3번지)","tel":"053-471-943","foundation":"사립"},{"id":21704,"name":"강북고등학교","type":"고등학교","website":"http://www.gangbuk.hs.kr","lat":"35.9289834","lng":"128.5401433","prov":"대구","address":"대구광역시 북구 태전로 100 (태전동 산14-1번지)","tel":"053-323-282","foundation":"사립"},{"id":21705,"name":"경명여자고등학교","type":"고등학교","website":"http://kyeong-myeong.hs.kr","lat":"35.8804768","lng":"128.5981355","prov":"대구","address":"대구광역시 북구 칠성로17길 18 (칠성동2가 411번지)","tel":"053-426-0930","foundation":"사립"},{"id":21706,"name":"경상고등학교","type":"고등학교","website":"http://www.kyungsang.or.kr","lat":"35.9005036","lng":"128.6228634","prov":"대구","address":"대구광역시 북구 공항로15길 24 (복현동 105번지)","tel":"053-384-1803","foundation":"사립"},{"id":21707,"name":"경상여자고등학교","type":"고등학교","website":"http://gyeongsang-g.hs.kr","lat":"35.8958453","lng":"128.5842480","prov":"대구","address":"대구광역시 북구 침산남로9길 164 (침산동 810-1번지)","tel":"053-351-4154","foundation":"사립"},{"id":21708,"name":"구암고등학교","type":"고등학교","website":"http://www.guam.hs.kr","lat":"35.9271289","lng":"128.5534622","prov":"대구","address":"대구광역시 북구 태암남로11길 7 (구암동 672번지)","tel":"053-320-9004","foundation":"공립"},{"id":21709,"name":"대구체육고등학교","type":"고등학교","website":"http://www.daegu-ph.hs.kr","lat":"35.9568310","lng":"128.5585188","prov":"대구","address":"대구광역시 북구 칠곡중앙대로136길 29 (동호동 463-2번지)","tel":"053-609-8100","foundation":"공립"},{"id":21710,"name":"매천고등학교","type":"고등학교","website":"http://www.maecheon.hs.kr/","lat":"35.9101307","lng":"128.5465636","prov":"대구","address":"대구광역시 북구 매전로 70 (태전동 1127번지)","tel":"053-310-5105","foundation":"공립"},{"id":21711,"name":"성광고등학교","type":"고등학교","website":"http://seonggwang.hs.kr/","lat":"35.8998504","lng":"128.6181922","prov":"대구","address":"대구광역시 북구 검단로 150 (복현2동 8-1번지)","tel":"053-382-0554","foundation":"사립"},{"id":21712,"name":"성화여자고등학교","type":"고등학교","website":"http://www.sunghwa.hs.kr","lat":"35.8991543","lng":"128.6188312","prov":"대구","address":"대구광역시 북구 복현로 140 (복현동 540-1번지)","tel":"053-380-2562","foundation":"사립"},{"id":21713,"name":"영송여자고등학교","type":"고등학교","website":"http://www.youngsong.hs.kr","lat":"35.9289834","lng":"128.5401433","prov":"대구","address":"대구광역시 북구 태전로 92 (태전동 산6-1번지)","tel":"053-324-3477","foundation":"사립"},{"id":21714,"name":"영진고등학교","type":"고등학교","website":"http://www.yeungjin.hs.kr","lat":"35.8939170","lng":"128.6224709","prov":"대구","address":"대구광역시 북구 동북로57길 9 (복현2동 332-1번지)","tel":"053-940-3200","foundation":"사립"},{"id":21715,"name":"운암고등학교","type":"고등학교","website":"http://www.woonam.hs.kr","lat":"35.9252476","lng":"128.5538337","prov":"대구","address":"대구광역시 북구 학정로 378 (구암동 787번지)","tel":"053-323-0140","foundation":"공립"},{"id":21716,"name":"칠성고등학교","type":"고등학교","website":"http://chilseong.hs.kr","lat":"35.8809824","lng":"128.5909664","prov":"대구","address":"대구광역시 북구 칠성로 13 (칠성동2가 168-13번지)","tel":"053-350-1800","foundation":"공립"},{"id":21717,"name":"학남고등학교","type":"고등학교","website":"http://www.haknam.hs.kr","lat":"35.9469267","lng":"128.5664742","prov":"대구","address":"대구광역시 북구 학남로 78 (국우동 1080-1번지)","tel":"053-608-6100","foundation":"공립"},{"id":21718,"name":"함지고등학교","type":"고등학교","website":"http://www.hamji.hs.kr","lat":"35.9265740","lng":"128.5592472","prov":"대구","address":"대구광역시 북구 학정로48길 46 (구암동 488-3번지)","tel":"053-310-3503","foundation":"공립"},{"id":21719,"name":"경북고등학교","type":"고등학교","website":"http://www.kyeongbuk.hs.kr","lat":"35.8391356","lng":"128.6391366","prov":"대구","address":"대구광역시 수성구 청호로 300 (황금동 9번지)","tel":"053-760-5503","foundation":"공립"},{"id":21720,"name":"경신고등학교","type":"고등학교","website":"http://www.gyeongsin.hs.kr","lat":"35.8562749","lng":"128.6382966","prov":"대구","address":"대구광역시 수성구 달구벌대로504길 34 (범어4동 100번지)","tel":"053-760-0000","foundation":"사립"},{"id":21721,"name":"능인고등학교","type":"고등학교","website":"http://neungin.hs.kr","lat":"35.8300456","lng":"128.6230353","prov":"대구","address":"대구광역시 수성구 무학로 207 (지산동 800번지)","tel":"053-764-0806","foundation":"사립"},{"id":21722,"name":"대구과학고등학교","type":"고등학교","website":"http://www.ts.hs.kr","lat":"35.8497073","lng":"128.6256448","prov":"대구","address":"대구광역시 수성구 동대구로 154 (황금동 613번지)","tel":"053-765-0013","foundation":"공립"},{"id":21723,"name":"대구남산고등학교","type":"고등학교","website":"http://www.tgns.hs.kr/","lat":"35.8575118","lng":"128.6092622","prov":"대구","address":"대구광역시 수성구 신천동로 364 (수성동1가 96-16번지)","tel":"053-743-9860","foundation":"사립"},{"id":21724,"name":"대구여자고등학교","type":"고등학교","website":"http://www.dgg.hs.kr","lat":"35.8552163","lng":"128.6290529","prov":"대구","address":"대구광역시 수성구 달구벌대로488길 17 (범어1동 238-41번지)","tel":"053-667-5500","foundation":"공립"},{"id":21725,"name":"대구자연과학고등학교","type":"고등학교","website":"http://www.dns.hs.kr","lat":"35.8398576","lng":"128.6974082","prov":"대구","address":"대구광역시 수성구 달구벌대로 3170 (노변동 387번지)","tel":"053-790-0114","foundation":"공립"},{"id":21726,"name":"대구중앙고등학교","type":"고등학교","website":"http://www.joongang.hs.kr","lat":"35.8669272","lng":"128.6164609","prov":"대구","address":"대구광역시 수성구 신천동로 496 (수성동4가 1145-1번지)","tel":"053-752-9664","foundation":"사립"},{"id":21727,"name":"대구혜화여자고등학교","type":"고등학교","website":"http://www.hyehwa.hs.kr","lat":"35.8506010","lng":"128.6503204","prov":"대구","address":"대구광역시 수성구 교학로12길 62 (만촌3동 1256-26번지)","tel":"053-749-1234","foundation":"사립"},{"id":21728,"name":"대륜고등학교","type":"고등학교","website":"http://www.daeryun.hs.kr","lat":"35.8539110","lng":"128.6471908","prov":"대구","address":"대구광역시 수성구 달구벌대로 2700 (만촌동 산241번지)","tel":"053-740-0303","foundation":"사립"},{"id":21729,"name":"덕원고등학교","type":"고등학교","website":"http://www.dukwon.hs.kr","lat":"35.8116646","lng":"128.6994675","prov":"대구","address":"대구광역시 수성구 욱수길 37 (욱수동 81번지)","tel":"053-790-2013","foundation":"사립"},{"id":21730,"name":"동문고등학교","type":"고등학교","website":"http://dongmoon.hs.kr","lat":"35.8764175","lng":"128.6509017","prov":"대구","address":"대구광역시 수성구 효행로 17 (만촌1동 80-4번지)","tel":"053-950-1600","foundation":"공립"},{"id":21731,"name":"수성고등학교","type":"고등학교","website":"http://www.suseong.hs.kr/","lat":"35.8223257","lng":"128.6252238","prov":"대구","address":"대구광역시 수성구 용학로28길 36 (지산2동 1184-3번지)","tel":"053-712-815","foundation":"공립"},{"id":21732,"name":"시지고등학교","type":"고등학교","website":"http://www.siji.hs.kr","lat":"35.8347228","lng":"128.7077310","prov":"대구","address":"대구광역시 수성구 신매로 6 (신매동 602-1번지)","tel":"053-790-2197","foundation":"공립"},{"id":21733,"name":"영남공업고등학교","type":"고등학교","website":"http://www.ynth.hs.kr","lat":"35.8534393","lng":"128.6530509","prov":"대구","address":"대구광역시 수성구 교학로 96 (만촌동 1160-3번지)","tel":"053-740-0810","foundation":"사립"},{"id":21734,"name":"오성고등학교","type":"고등학교","website":"http://osung.hs.kr","lat":"35.8550220","lng":"128.6471352","prov":"대구","address":"대구광역시 수성구 달구벌대로522길 78 (만촌3동 1070번지)","tel":"053-740-0580","foundation":"사립"},{"id":21735,"name":"정화여자고등학교","type":"고등학교","website":"http://www.junghwa.hs.kr","lat":"35.8525144","lng":"128.6407892","prov":"대구","address":"대구광역시 수성구 청호로84길 123 (범어동 산105-1번지)","tel":"053-740-1700","foundation":"사립"},{"id":21736,"name":"경북기계공업고등학교","type":"고등학교","website":"http://www.gbgigong.hs.kr/","lat":"35.8221622","lng":"128.5331461","prov":"대구","address":"대구광역시 달서구 월배로 275 (상인동 1-6번지)","tel":"053-640-1213","foundation":"공립"},{"id":21737,"name":"경원고등학교","type":"고등학교","website":"http://www.kwh.hs.kr","lat":"35.8625684","lng":"128.5224936","prov":"대구","address":"대구광역시 달서구 새방로 77 (용산동 6번지)","tel":"053-560-8200","foundation":"사립"},{"id":21738,"name":"경화여자고등학교","type":"고등학교","website":"http://www.kyonghwa.hs.kr","lat":"35.8482119","lng":"128.5492682","prov":"대구","address":"대구광역시 달서구 당산로30길 20 (성당2동 670-29번지)","tel":"053-622-3005","foundation":"사립"},{"id":21739,"name":"구남보건고등학교","type":"고등학교","website":"http://www.gunam.hs.kr","lat":"35.8572136","lng":"128.5701057","prov":"대구","address":"대구광역시 달서구 두류남길 10 (두류1동 1207-1번지)","tel":"053-652-1586","foundation":"사립"},{"id":21740,"name":"대건고등학교","type":"고등학교","website":"http://www.daegun.hs.kr","lat":"35.8326055","lng":"128.5265356","prov":"대구","address":"대구광역시 달서구 월곡로94길 46 (월성동 247번지)","tel":"053-631-9680","foundation":"사립"},{"id":21741,"name":"대곡고등학교","type":"고등학교","website":"http://www.dg.hs.kr","lat":"35.8045628","lng":"128.5356997","prov":"대구","address":"대구광역시 달서구 도원남로 80 (도원동 1459번지)","tel":"053-630-1506","foundation":"공립"},{"id":21742,"name":"대구달서공업고등학교","type":"고등학교","website":"http://www.dalgong.hs.kr","lat":"35.8243692","lng":"128.5376312","prov":"대구","address":"대구광역시 달서구 학산남로 50 (상인동 1-2번지)","tel":"053-640-1107","foundation":"공립"},{"id":21743,"name":"대구상원고등학교","type":"고등학교","website":"http://www.daesang.hs.kr","lat":"35.8214415","lng":"128.5441467","prov":"대구","address":"대구광역시 달서구 월배로 241 (상인1동 1번지)","tel":"053-640-558","foundation":"공립"},{"id":21744,"name":"대구외국어고등학교","type":"고등학교","website":"http://www.taegu-fh.hs.kr","lat":"35.8603182","lng":"128.4989718","prov":"대구","address":"대구광역시 달서구 선원로11길 21 (신당동 1675번지)","tel":"053-550-7800","foundation":"공립"},{"id":21745,"name":"대구전자공업고등학교","type":"고등학교","website":"http://www.daegu-eth.hs.kr","lat":"35.8448550","lng":"128.5300635","prov":"대구","address":"대구광역시 달서구 용산로 113 (장기동 464-10번지)","tel":"053-606-0606","foundation":"공립"},{"id":21746,"name":"대구제일여자상업고등학교","type":"고등학교","website":"http://www.jeil.hs.kr","lat":"35.8391339","lng":"128.5438392","prov":"대구","address":"대구광역시 달서구 대명천로 120 (본리동 156-1번지)","tel":"053-620-5124","foundation":"공립"},{"id":21747,"name":"대진고등학교","type":"고등학교","website":"http://www.dj.hs.kr","lat":"35.8065997","lng":"128.5193025","prov":"대구","address":"대구광역시 달서구 화암로73길 15 (대곡동 135번지)","tel":"053-640-1602","foundation":"공립"},{"id":21748,"name":"도원고등학교","type":"고등학교","website":"http://www.dowon.hs.kr","lat":"35.8066821","lng":"128.5447145","prov":"대구","address":"대구광역시 달서구 미리샘길 52 (도원동 1453번지)","tel":"053-630-5502","foundation":"공립"},{"id":21749,"name":"상서고등학교","type":"고등학교","website":"http://www.sangsuh.hs.kr","lat":"35.8500140","lng":"128.5584034","prov":"대구","address":"대구광역시 달서구 야외음악당로 107 (성당동 670-31번지)","tel":"053-626-8107","foundation":"사립"},{"id":21750,"name":"상인고등학교","type":"고등학교","website":"http://www.sangin.hs.kr/","lat":"35.8137196","lng":"128.5475340","prov":"대구","address":"대구광역시 달서구 상인로 24 (상인3동 1562번지)","tel":"053-644-6304","foundation":"공립"},{"id":21751,"name":"성산고등학교","type":"고등학교","website":"http://www.seongsan.hs.kr","lat":"35.8622202","lng":"128.5210514","prov":"대구","address":"대구광역시 달서구 새방로7길 33 (용산동 508-2번지)","tel":"053-589-3952","foundation":"공립"},{"id":21752,"name":"성서고등학교","type":"고등학교","website":"http://www.sshigh.hs.kr/","lat":"35.8592366","lng":"128.5092828","prov":"대구","address":"대구광역시 달서구 선원로 221 (용산동 501-1번지)","tel":"053-720-3100","foundation":"공립"},{"id":21753,"name":"송현여자고등학교","type":"고등학교","website":"http://www.songhyun.hs.kr","lat":"35.8256067","lng":"128.5447569","prov":"대구","address":"대구광역시 달서구 송현로 156 (송현2동 540번지)","tel":"053-628-353","foundation":"사립"},{"id":21754,"name":"영남고등학교","type":"고등학교","website":"http://www.yeungnam.hs.kr/","lat":"35.8084781","lng":"128.5439894","prov":"대구","address":"대구광역시 달서구 월곡로 300 (상인동 70번지)","tel":"053-634-1828","foundation":"사립"},{"id":21755,"name":"와룡고등학교","type":"고등학교","website":"http://www.waryong.hs.kr","lat":"35.8609009","lng":"128.5040343","prov":"대구","address":"대구광역시 달서구 선원로23북길 20 (이곡동 1318번지)","tel":"053-591-3693","foundation":"공립"},{"id":21756,"name":"원화여자고등학교","type":"고등학교","website":"http://www.wonhwa.daegu.kr","lat":"35.8482119","lng":"128.5492682","prov":"대구","address":"대구광역시 달서구 당산로30길 30 (성당2동 670-30번지)","tel":"053-650-0110","foundation":"사립"},{"id":21757,"name":"호산고등학교","type":"고등학교","website":"http://www.hosan.hs.kr","lat":"35.8485955","lng":"128.4819123","prov":"대구","address":"대구광역시 달서구 달서대로109길 86 (호산동 357-59번지)","tel":"053-310-610","foundation":"공립"},{"id":21758,"name":"효성여자고등학교","type":"고등학교","website":"http://hyo-sung.hs.kr","lat":"35.8326055","lng":"128.5265356","prov":"대구","address":"대구광역시 달서구 월곡로94길 48 (월성동 247번지)","tel":"053-720-4220","foundation":"사립"},{"id":21759,"name":"다사고등학교","type":"고등학교","website":"http://www.dasa.hs.kr","lat":"35.8593802","lng":"128.4466289","prov":"대구","address":"대구광역시 달성군 다사읍 달구벌대로 839 (죽곡리 5-5번지)","tel":"053-570-3320","foundation":"공립"},{"id":21760,"name":"달서고등학교","type":"고등학교","website":"http://www.dalseo.hs.kr","lat":"35.9076336","lng":"128.4453579","prov":"대구","address":"대구광역시 달성군 하빈면 하빈로 118 (하빈면 감문리 815번지)","tel":"053-582-0646","foundation":"사립"},{"id":21761,"name":"달성정보고등학교","type":"고등학교","website":"http://www.d-s.hs.kr","lat":"35.6592887","lng":"128.4133845","prov":"대구","address":"대구광역시 달성군 구지면 창리로11길 93 (창리 324번지)","tel":"053-470-0770","foundation":"공립"},{"id":21762,"name":"대원고등학교","type":"고등학교","website":"http://www.dw.hs.kr","lat":"35.8003982","lng":"128.4934974","prov":"대구","address":"대구광역시 달성군 화원읍 비슬로 2658 (본리리 1-1번지)","tel":"053-668-1000","foundation":"사립"},{"id":21763,"name":"대중금속공업고등학교","type":"고등학교","website":"http://www.daejung.hs.kr","lat":"35.8033616","lng":"128.6241949","prov":"대구","address":"대구광역시 달성군 가창면 가창로 1076-1 (용계리 304-1번지)","tel":"053-768-3958","foundation":"사립"},{"id":21764,"name":"포산고등학교","type":"고등학교","website":"http://www.posan.hs.kr","lat":"35.6902447","lng":"128.4484012","prov":"대구","address":"대구광역시 달성군 현풍면 비슬로 556-13 (현풍면 중리 407-2번지)","tel":"053-610-5720","foundation":"공립"},{"id":21765,"name":"현풍고등학교","type":"고등학교","website":"http://www.hyunpung.hs.kr","lat":"35.6955645","lng":"128.4409991","prov":"대구","address":"대구광역시 달성군 현풍면 비슬로 675 (성하리 497번지)","tel":"053-614-2020","foundation":"사립"},{"id":21766,"name":"화원고등학교","type":"고등학교","website":"http://www.daegu-hwawon.hs.kr/","lat":"35.8003982","lng":"128.4934974","prov":"대구","address":"대구광역시 달성군 화원읍 비슬로 2458 (설화리 553-13번지)","tel":"053-640-010","foundation":"공립"},{"id":21767,"name":"광성고등학교","type":"고등학교","website":"http://www.ks.hs.kr","lat":"37.4674299","lng":"126.6399590","prov":"인천","address":"인천광역시 중구 도원동 12-73","tel":"032-760-5200","foundation":"사립"},{"id":21768,"name":"영종국제물류고등학교","type":"고등학교","website":"http://www.hg.hs.kr","lat":"37.4900032","lng":"126.5309376","prov":"인천","address":"인천광역시 중구 운남동 799","tel":"032-746-0030","foundation":"공립"},{"id":21769,"name":"인성여자고등학교","type":"고등학교","website":"http://www.insung21.net","lat":"37.4741829","lng":"126.6243847","prov":"인천","address":"인천광역시 중구 송학동2가 18-","tel":"032-762-8503","foundation":"사립"},{"id":21770,"name":"인일여자고등학교","type":"고등학교","website":"http://inil.hs.kr","lat":"37.4778677","lng":"126.6262074","prov":"인천","address":"인천광역시 중구 전동 25-4","tel":"032-764-668","foundation":"공립"},{"id":21771,"name":"인천공항고등학교","type":"고등학교","website":"http://www.gonghang.hs.kr/","lat":"37.4829890","lng":"126.5122329","prov":"인천","address":"인천광역시 중구 운서동 20번지","tel":"032-746-2363","foundation":"공립"},{"id":21772,"name":"인천과학고등학교","type":"고등학교","website":"http://www.i-science.hs.kr","lat":"37.4917344","lng":"126.4789268","prov":"인천","address":"인천광역시 중구운서동 543-4번지","tel":"032-746-8302","foundation":"공립"},{"id":21773,"name":"인천국제고등학교","type":"고등학교","website":"http://www.ii.hs.kr","lat":"37.4901089","lng":"126.5091710","prov":"인천","address":"인천광역시 중구 운서동 543-8","tel":"032-746-7505","foundation":"공립"},{"id":21774,"name":"인천여자상업고등학교","type":"고등학교","website":"http://www.ic.hs.kr","lat":"37.4677488","lng":"126.6285721","prov":"인천","address":"인천광역시 중구신생동 25","tel":"032-761-2353","foundation":"공립"},{"id":21775,"name":"인천영종고등학교","type":"고등학교","website":"http://yeongjong.icehs.kr","lat":"37.4855727","lng":"126.5012933","prov":"인천","address":"인천광역시 중구 운서동 890 인천영종고등학교","tel":"032-746-1593","foundation":"공립"},{"id":21776,"name":"인천정보산업고등학교","type":"고등학교","website":"http://inchon-ii.icehs.kr/","lat":"37.4692908","lng":"126.6358113","prov":"인천","address":"인천광역시 중구 율목동 참외전로 192(율목동)","tel":"032-770-0713","foundation":"공립"},{"id":21777,"name":"인천중앙여자상업고등학교","type":"고등학교","website":"www.ija.hs.kr","lat":"37.4652091","lng":"126.6414653","prov":"인천","address":"인천광역시 중구 도원동 12-75","tel":"032-883-8735","foundation":"사립"},{"id":21778,"name":"인천하늘고등학교","type":"고등학교","website":"http://www.haneul.hs.kr","lat":"37.4917947","lng":"126.5086385","prov":"인천","address":"인천광역시 중구 영종대로 277번길 117 인천하늘고등학교","tel":"032-745-0440","foundation":"사립"},{"id":21779,"name":"인천해사고등학교","type":"고등학교","website":"http://inm.hs.kr","lat":"37.4684020","lng":"126.5996845","prov":"인천","address":"인천광역시 중구 북성동1가 102-33","tel":"032-770-108","foundation":"국립"},{"id":21780,"name":"제물포고등학교","type":"고등학교","website":"http://jego.or.kr","lat":"37.4766308","lng":"126.6239769","prov":"인천","address":"인천광역시 중구전동 26","tel":"032-764-3644","foundation":"공립"},{"id":21781,"name":"동산고등학교","type":"고등학교","website":"www.dongsan.hs.kr","lat":"37.4738184","lng":"126.6433385","prov":"인천","address":"인천광역시 동구 58번지 동산고등학교","tel":"032-763-7827","foundation":"사립"},{"id":21782,"name":"영화관광경영고등학교","type":"고등학교","website":"http://younghwa.icehs.kr","lat":"37.4711916","lng":"126.6404233","prov":"인천","address":"인천광역시 동구 창영동 36 (우각로 39)","tel":"032-764-7920","foundation":"사립"},{"id":21783,"name":"인천박문여자고등학교","type":"고등학교","website":"http://www.bakmun.hs.kr","lat":"37.4703934","lng":"126.6507867","prov":"인천","address":"인천광역시 동구 송림동 박문로 ","tel":"032-762-8072","foundation":"사립"},{"id":21784,"name":"재능유비쿼터스고등학교","type":"고등학교","website":"www.jn.hs.kr","lat":"37.4759008","lng":"126.6498176","prov":"인천","address":"인천광역시 동구 송림동 122-","tel":"032-764-1197","foundation":"사립"},{"id":21785,"name":"도화기계공업고등학교","type":"고등학교","website":"http://www.dohwa.hs.kr","lat":"37.4749963","lng":"126.6524296","prov":"인천","address":"인천광역시 남구 도화동 20-6","tel":"032-760-0104","foundation":"공립"},{"id":21786,"name":"문학정보고등학교","type":"고등학교","website":"http://www.munhak.hs.kr","lat":"37.4392211","lng":"126.6781980","prov":"인천","address":"인천광역시 남구문학동 350번길 29","tel":"032-427-4287","foundation":"공립"},{"id":21787,"name":"선인고등학교","type":"고등학교","website":"http://sunin.icehs.kr","lat":"37.4659577","lng":"126.6662525","prov":"인천","address":"인천광역시 남구 도화동 206-1(석정로 165)","tel":"032-761-6124","foundation":"공립"},{"id":21788,"name":"인명여자고등학교","type":"고등학교","website":"http://inmyong.hs.kr","lat":"37.4418219","lng":"126.6981085","prov":"인천","address":"인천광역시 남구 문화로 1","tel":"032-712-1112","foundation":"사립"},{"id":21789,"name":"인천고등학교","type":"고등학교","website":"http://www.incheon.hs.kr","lat":"37.4532344","lng":"126.6907861","prov":"인천","address":"인천광역시 남구 주안4동 1555","tel":"032-451-0559","foundation":"공립"},{"id":21790,"name":"인천기계공업고등학교","type":"고등학교","website":"http://www.ingigong.icehs.kr","lat":"37.4558847","lng":"126.6686480","prov":"인천","address":"인천광역시 남구 주안2동 625-2","tel":"032-865-980","foundation":"공립"},{"id":21791,"name":"인천비즈니스고등학교","type":"고등학교","website":"http://www.ibg.hs.kr","lat":"37.4716364","lng":"126.6660060","prov":"인천","address":"인천광역시 남구 도화동 43-24번지","tel":"032-763-3037","foundation":"공립"},{"id":21792,"name":"인천전자마이스터고등학교","type":"고등학교","website":"http://intec.icehs.kr","lat":"37.4672908","lng":"126.6706962","prov":"인천","address":"인천광역시 남구 도화2.3동 1~36 (도화동)","tel":"032-766-8425","foundation":"공립"},{"id":21793,"name":"인천체육고등학교","type":"고등학교","website":"http://www.inchonphed.hs.kr","lat":"37.5443094","lng":"126.6095848","prov":"인천","address":"인천광역시 서구 경서동 830-3","tel":"032-872-0242","foundation":"공립"},{"id":21794,"name":"인천하이텍고등학교","type":"고등학교","website":"http://iht.icehs.kr","lat":"37.4749963","lng":"126.6524296","prov":"인천","address":"인천광역시 남구 도화동 20-6","tel":"032-760-9104","foundation":"공립"},{"id":21795,"name":"인하대학교사범대학부속고등학교","type":"고등학교","website":"http://www.inha.hs.kr","lat":"37.4465149","lng":"126.6625816","prov":"인천","address":"인천 남구 학익동 306-30","tel":"032-870-1000","foundation":"사립"},{"id":21796,"name":"인항고등학교","type":"고등학교","website":"http://inhang.icehs.kr","lat":"37.4467044","lng":"126.6404902","prov":"인천","address":"인천광역시 남구 용현5동 627-456","tel":"032-885-3302","foundation":"사립"},{"id":21797,"name":"인화여자고등학교","type":"고등학교","website":"inhwa.hs.kr","lat":"37.4747835","lng":"126.6622487","prov":"인천","address":"인천광역시 남구 도화동 235","tel":"032-765-062","foundation":"공립"},{"id":21798,"name":"정석항공과학고등학교","type":"고등학교","website":"http://www.jungseok-at.kr","lat":"37.4498212","lng":"126.6594761","prov":"인천","address":"인천광역시 남구 용현1.4동 정석항공과학고등학교 인하로 100","tel":"032-867-6242","foundation":"사립"},{"id":21799,"name":"학익고등학교","type":"고등학교","website":"http://hakik.hs.kr","lat":"37.4393982","lng":"126.6646180","prov":"인천","address":"인천광역시 남구학익1동 688-","tel":"032-868-4143","foundation":"공립"},{"id":21800,"name":"학익여자고등학교","type":"고등학교","website":"http://hakikgh.hs.kr","lat":"37.4435768","lng":"126.6757110","prov":"인천","address":"인천광역시 남구 학익동 646","tel":"032-712-5704","foundation":"공립"},{"id":21801,"name":"송도고등학교","type":"고등학교","website":"http://www.songdo.hs.kr","lat":"37.4281082","lng":"126.6456706","prov":"인천","address":"인천광역시 연수구 독배로 9","tel":"032-832-3412","foundation":"사립"},{"id":21802,"name":"신송고등학교","type":"고등학교","website":"http://www.shinsong.hs.kr","lat":"37.3970268","lng":"126.6548818","prov":"인천","address":"인천광역시 연수구 송도동 2-1","tel":"032-851-1613","foundation":"공립"},{"id":21803,"name":"연수고등학교","type":"고등학교","website":"yeonsu-h.icehs.kr","lat":"37.4103029","lng":"126.6808151","prov":"인천","address":"인천광역시 연수구 연수동 원인재로 145","tel":"032-817-0052","foundation":"공립"},{"id":21804,"name":"연수여자고등학교","type":"고등학교","website":"http://www.yunsug.hs.kr/","lat":"37.4110979","lng":"126.6701449","prov":"인천","address":"인천광역시 연수구 동춘동 921-","tel":"032-457-1103","foundation":"공립"},{"id":21805,"name":"옥련여자고등학교","type":"고등학교","website":"http://www.okryun-h.icehs.kr","lat":"37.4319343","lng":"126.6486721","prov":"인천","address":"인천 연수구 옥련동 93 옥련여자고등학교","tel":"032-834-5482","foundation":"공립"},{"id":21806,"name":"인천대건고등학교","type":"고등학교","website":"http://idg.hs.kr","lat":"37.4022525","lng":"126.6653509","prov":"인천","address":"인천광역시 연수구 능허대로 437 (동춘1동 517-1)","tel":"032-822-045","foundation":"사립"},{"id":21807,"name":"인천생활과학고등학교","type":"고등학교","website":"http://ips.icehs.kr","lat":"37.4241458","lng":"126.6772181","prov":"인천","address":"인천광역시 연수구 연수1동 535-","tel":"032-822-925","foundation":"공립"},{"id":21808,"name":"인천여자고등학교","type":"고등학교","website":"http://www.inchon-gh.hs.kr","lat":"37.4221366","lng":"126.6900907","prov":"인천","address":"인천광역시 연수구연수3동 534-3","tel":"032-810-6300","foundation":"공립"},{"id":21809,"name":"인천여자공업고등학교","type":"고등학교","website":"http://inyeogong.icehs.kr","lat":"37.4038065","lng":"126.6716449","prov":"인천","address":"인천광역시 연수구 동춘동 932-3","tel":"032-813-9143","foundation":"공립"},{"id":21810,"name":"인천연송고등학교","type":"고등학교","website":"http://liys.icehs.kr","lat":"37.4029087","lng":"126.6465938","prov":"인천","address":"인천광역시 연수구 송도동 15-4","tel":"032-712-2000","foundation":"공립"},{"id":21811,"name":"인천해송고등학교","type":"고등학교","website":"http://haesong.hs.kr/","lat":"37.3839118","lng":"126.6438546","prov":"인천","address":"인천광역시 연수구 송도동 (송도동 9-4)","tel":"032-831-032","foundation":"공립"},{"id":21812,"name":"인천해양과학고등학교","type":"고등학교","website":"http://mars.hs.kr","lat":"37.4257865","lng":"126.6413024","prov":"인천","address":"인천광역시 연수구옥련동 194-86","tel":"032-832-4654","foundation":"공립"},{"id":21813,"name":"청학공업고등학교","type":"고등학교","website":"http://cht.hs.kr","lat":"37.4199638","lng":"126.6695322","prov":"인천","address":"인천광역시 연수구 청학동 용담로 12","tel":"032-817-0124","foundation":"공립"},{"id":21814,"name":"도림고등학교","type":"고등학교","website":"http://www.dorim.hs.kr","lat":"37.4216584","lng":"126.7214268","prov":"인천","address":"인천광역시 남동구 도림동 비류대로 762-10","tel":"032-718-4394","foundation":"공립"},{"id":21815,"name":"동인천고등학교","type":"고등학교","website":"http://dih.hs.kr","lat":"37.4663205","lng":"126.7352183","prov":"인천","address":"인천광역시 남동구 만수로75번길 (만수동 5-394) 동인천고등학교","tel":"032-462-4689","foundation":"공립"},{"id":21816,"name":"문일여자고등학교","type":"고등학교","website":"http://moonil-g.icehs.kr","lat":"37.4517325","lng":"126.7308549","prov":"인천","address":"인천광역시 남동구 만수1동 977-25 하촌2길","tel":"032-465-3413","foundation":"사립"},{"id":21817,"name":"미추홀외국어고등학교","type":"고등학교","website":"http://www.mch.hs.kr","lat":"37.4026757","lng":"126.7074177","prov":"인천","address":"인천광역시 남동구 논현동 409-","tel":"032-442-0963","foundation":"공립"},{"id":21818,"name":"석정여자고등학교","type":"고등학교","website":"http://seokjeong.hs.kr","lat":"37.4685098","lng":"126.6988895","prov":"인천","address":"인천광역시 남동구 간석4동 570~767 614-1","tel":"032-720-7200","foundation":"공립"},{"id":21819,"name":"숭덕여자고등학교","type":"고등학교","website":"http://www.soongduk.hs.kr","lat":"37.4642464","lng":"126.7344166","prov":"인천","address":"인천광역시 남동구 만수동 5-213","tel":"032-462-5197","foundation":"사립"},{"id":21820,"name":"신명여자고등학교","type":"고등학교","website":"http://www.shinmyung.hs.kr","lat":"37.4692045","lng":"126.7124621","prov":"인천","address":"인천광역시 남동구 간석3동 26번지","tel":"032-422-033","foundation":"사립"},{"id":21821,"name":"인제고등학교","type":"고등학교","website":"http://www.inje.hs.kr","lat":"37.4597783","lng":"126.7096895","prov":"인천","address":"인천광역시 남동구 간석2동 197번길 19(간석동 136-1)","tel":"032-422-668","foundation":"사립"},{"id":21822,"name":"인천고잔고등학교","type":"고등학교","website":"http://www.gojan.hs.kr","lat":"37.3890590","lng":"126.7181524","prov":"인천","address":"인천광역시 남동구 고잔동 374-","tel":"032-430-2400","foundation":"공립"},{"id":21823,"name":"인천남고등학교","type":"고등학교","website":"www.inam.hs.kr","lat":"37.4665143","lng":"126.7006661","prov":"인천","address":"인천광역시 남동구 간석4동 551번길41(간석4동 614-12)","tel":"032-722-1500","foundation":"공립"},{"id":21824,"name":"인천남동고등학교","type":"고등학교","website":"http://www.namdong.hs.kr","lat":"37.4057921","lng":"126.7214727","prov":"인천","address":"인천광역시 남동구 논현동 588-","tel":"032-421-2983","foundation":"공립"},{"id":21825,"name":"인천논현고등학교","type":"고등학교","website":"http://nh.icehs.kr/main.do","lat":"37.4075188","lng":"126.7056000","prov":"인천","address":"인천광역시 남동구 논현동 논현 2택지 9블럭","tel":"032-446-0634","foundation":"공립"},{"id":21826,"name":"인천만수고등학교","type":"고등학교","website":"http://www.ms.hs.kr","lat":"37.4469435","lng":"126.7422359","prov":"인천","address":"인천광역시 남동구 만수6동 605-5","tel":"032-473-0377","foundation":"공립"},{"id":21827,"name":"인천송천고등학교","type":"고등학교","website":"http://songcheon.hs.kr","lat":"37.3955203","lng":"126.7222311","prov":"인천","address":"인천 남동구 고잔동 47번지","tel":"032-432-2263","foundation":"공립"},{"id":21828,"name":"인천예술고등학교","type":"고등학교","website":"http://www.in-art.hs.kr","lat":"37.4635119","lng":"126.7016031","prov":"인천","address":"인천광역시 남동구 간석1동 399~525 417-3","tel":"032-433-3145","foundation":"공립"},{"id":21829,"name":"한국문화콘텐츠고등학교","type":"고등학교","website":"http://kocuco.hs.kr","lat":"37.4517325","lng":"126.7308549","prov":"인천","address":"인천광역시 남동구 만수1동 977-25","tel":"032-712-3903","foundation":"사립"},{"id":21830,"name":"명신여자고등학교","type":"고등학교","website":"http://msrose.hs.kr","lat":"37.5046451","lng":"126.6969857","prov":"인천","address":"인천광역시 부평구 산곡1동 179~181 (산곡1동 180-147)","tel":"032-502-3088","foundation":"사립"},{"id":21831,"name":"부개고등학교","type":"고등학교","website":"http://www.bugaego.hs.kr","lat":"37.4923833","lng":"126.7385071","prov":"인천","address":"인천광역시 부평구 부개2동 120-546번지","tel":"032-722-5612","foundation":"공립"},{"id":21832,"name":"부개여자고등학교","type":"고등학교","website":"http://bugae.hs.kr","lat":"37.4993652","lng":"126.7411988","prov":"인천","address":"인천광역시 부평구 부개동 501-1","tel":"032-510-6700","foundation":"공립"},{"id":21833,"name":"부광고등학교","type":"고등학교","website":"http://www.bgh.hs.kr","lat":"37.4882038","lng":"126.7033412","prov":"인천","address":"인천광역시 부평구 산곡동 310-30","tel":"032-521-6032","foundation":"공립"},{"id":21834,"name":"부광여자고등학교","type":"고등학교","website":"http://bggh.hs.kr","lat":"37.5021989","lng":"126.7352001","prov":"인천","address":"인천광역시 부평구부개3동 19-6","tel":"032-526-3214","foundation":"공립"},{"id":21835,"name":"부평고등학교","type":"고등학교","website":"http://www.bupyeong.hs.kr/","lat":"37.5020425","lng":"126.7281094","prov":"인천","address":"인천광역시 부평구 부평4동 10-312","tel":"032-526-320","foundation":"공립"},{"id":21836,"name":"부평공업고등학교","type":"고등학교","website":"http://pth.icehs.kr","lat":"37.5123894","lng":"126.7268944","prov":"인천","address":"인천광역시 부평구갈산2동 360-2","tel":"032-526-073","foundation":"공립"},{"id":21837,"name":"부평디자인과학고등학교","type":"고등학교","website":"www.bds.icehs.kr","lat":"37.5006893","lng":"126.7425959","prov":"인천","address":"인천광역시 부평구 부개3동 499-9","tel":"032-361-0038","foundation":"공립"},{"id":21838,"name":"부평여자고등학교","type":"고등학교","website":"www.bpgh.hs.kr","lat":"37.5019790","lng":"126.7195360","prov":"인천","address":"인천광역시 부평구 부평동 (부평1동 65-147)부평여자고등학교","tel":"032-526-6432","foundation":"공립"}]}
